% program   : RTKLIB ver.2.4.3
% inp file  : str20350.17o
% inp file  : tidb0350.17o
% inp file  : brdc0350.17n
% inp file  : igs19346.sp3
% inp file  : igs19346.clk
% obs start : 2017/02/04 00:00:00.0 GPST (week1934 518400.0s)
% obs end   : 2017/02/04 23:59:30.0 GPST (week1934 604770.0s)
%
% (lat/lon/height=WGS84/ellipsoidal,Q=1:fix,2:float,3:sbas,4:dgps,5:single,6:ppp,ns=# of satellites)
%  GPST          latitude(deg) longitude(deg)  height(m)   Q  ns   sdn(m)   sde(m)   sdu(m)  sdne(m)  sdeu(m)  sdun(m) age(s)  ratio
1934 518400.000  -35.316153606  149.010186926   773.4285   6   6   3.0346   3.1359  10.7604  -0.6002  -3.5300  -1.7557   0.00    0.0
1934 518460.000  -35.316153917  149.010187702   771.8912   6   4   1.7560   1.8089   6.2881  -0.3059  -2.0464  -1.0804   0.00    0.0
1934 524040.000  -35.316154930  149.010167133   776.2279   6   4   0.4976   0.3516   1.1925   0.2263  -0.1728  -0.4038   0.00    0.0
1934 524070.000  -35.316155301  149.010167188   776.9240   6   4   0.4926   0.3499   1.1729   0.2242  -0.1677  -0.3940   0.00    0.0
1934 524100.000  -35.316155611  149.010167312   777.5644   6   4   0.4877   0.3482   1.1542   0.2222  -0.1628  -0.3846   0.00    0.0
1934 524160.000  -35.316156098  149.010167481   778.7454   6   5   0.4785   0.3450   1.1189   0.2183  -0.1534  -0.3669   0.00    0.0
1934 524190.000  -35.316156170  149.010167648   779.2994   6   5   0.4741   0.3434   1.1023   0.2164  -0.1490  -0.3586   0.00    0.0
1934 524220.000  -35.316156413  149.010167759   779.8264   6   5   0.4698   0.3418   1.0864   0.2146  -0.1446  -0.3504   0.00    0.0
1934 524250.000  -35.316156534  149.010167916   780.3450   6   5   0.4656   0.3403   1.0710   0.2128  -0.1404  -0.3426   0.00    0.0
1934 524280.000  -35.316156671  149.010168012   780.8302   6   6   0.4616   0.3388   1.0562   0.2111  -0.1362  -0.3350   0.00    0.0
1934 524310.000  -35.316156749  149.010168185   781.2845   6   5   0.4577   0.3373   1.0419   0.2094  -0.1321  -0.3277   0.00    0.0
1934 524340.000  -35.316156845  149.010168352   781.7114   6   5   0.4539   0.3358   1.0281   0.2077  -0.1282  -0.3206   0.00    0.0
1934 524370.000  -35.316156828  149.010168539   782.1306   6   6   0.4501   0.3344   1.0148   0.2061  -0.1243  -0.3137   0.00    0.0
1934 524400.000  -35.316156873  149.010168669   782.5159   6   5   0.4465   0.3330   1.0019   0.2045  -0.1205  -0.3070   0.00    0.0
1934 524430.000  -35.316156895  149.010168789   782.8999   6   6   0.4430   0.3316   0.9895   0.2029  -0.1167  -0.3005   0.00    0.0
1934 524460.000  -35.316156937  149.010168992   783.2693   6   6   0.4396   0.3302   0.9775   0.2013  -0.1131  -0.2942   0.00    0.0
1934 524490.000  -35.316156921  149.010169174   783.6398   6   5   0.4363   0.3289   0.9658   0.1998  -0.1095  -0.2881   0.00    0.0
1934 524520.000  -35.316156950  149.010169317   783.9553   6   6   0.4330   0.3275   0.9545   0.1983  -0.1059  -0.2821   0.00    0.0
1934 524550.000  -35.316156885  149.010169558   784.2686   6   6   0.4298   0.3262   0.9436   0.1969  -0.1024  -0.2762   0.00    0.0
1934 524580.000  -35.316156890  149.010169752   784.5786   6   6   0.4267   0.3249   0.9330   0.1954  -0.0989  -0.2706   0.00    0.0
1934 524610.000  -35.316156819  149.010169982   784.8552   6   7   0.4237   0.3237   0.9227   0.1940  -0.0955  -0.2650   0.00    0.0
1934 524640.000  -35.316156758  149.010170131   785.1139   6   7   0.4208   0.3223   0.9114   0.1926  -0.0949  -0.2594   0.00    0.0
1934 524670.000  -35.316156701  149.010170274   785.3738   6   8   0.4179   0.3208   0.9004   0.1913  -0.0944  -0.2540   0.00    0.0
1934 524700.000  -35.316156602  149.010170442   785.6098   6   8   0.4150   0.3195   0.8897   0.1900  -0.0938  -0.2487   0.00    0.0
1934 524730.000  -35.316156527  149.010170577   785.8379   6   7   0.4123   0.3181   0.8794   0.1887  -0.0933  -0.2436   0.00    0.0
1934 524760.000  -35.316156399  149.010170730   786.0398   6   8   0.4096   0.3167   0.8695   0.1874  -0.0928  -0.2386   0.00    0.0
1934 524790.000  -35.316156302  149.010170888   786.2455   6   8   0.4069   0.3154   0.8598   0.1861  -0.0923  -0.2337   0.00    0.0
1934 524820.000  -35.316156222  149.010171009   786.4455   6   7   0.4043   0.3141   0.8504   0.1848  -0.0918  -0.2290   0.00    0.0
1934 524850.000  -35.316156060  149.010171131   786.6246   6   8   0.4018   0.3128   0.8414   0.1835  -0.0913  -0.2243   0.00    0.0
1934 524880.000  -35.316155983  149.010171255   786.8121   6   8   0.3993   0.3115   0.8325   0.1823  -0.0908  -0.2198   0.00    0.0
1934 524910.000  -35.316155843  149.010171362   786.9959   6   8   0.3969   0.3102   0.8240   0.1810  -0.0903  -0.2154   0.00    0.0
1934 524940.000  -35.316155742  149.010171437   787.1788   6   8   0.3945   0.3089   0.8157   0.1797  -0.0898  -0.2111   0.00    0.0
1934 524970.000  -35.316155636  149.010171532   787.3451   6   8   0.3922   0.3077   0.8076   0.1785  -0.0894  -0.2070   0.00    0.0
1934 525000.000  -35.316155506  149.010171630   787.5295   6   7   0.3899   0.3065   0.7998   0.1773  -0.0889  -0.2029   0.00    0.0
1934 525030.000  -35.316155371  149.010171781   787.6825   6   8   0.3877   0.3052   0.7921   0.1760  -0.0885  -0.1989   0.00    0.0
1934 525060.000  -35.316155242  149.010171900   787.8255   6   8   0.3855   0.3040   0.7847   0.1748  -0.0881  -0.1950   0.00    0.0
1934 525090.000  -35.316155112  149.010172009   787.9809   6   7   0.3833   0.3028   0.7775   0.1736  -0.0877  -0.1911   0.00    0.0
1934 525120.000  -35.316155007  149.010172137   788.1239   6   8   0.3812   0.3016   0.7705   0.1724  -0.0873  -0.1874   0.00    0.0
1934 525150.000  -35.316154887  149.010172273   788.2537   6   8   0.3791   0.3005   0.7636   0.1712  -0.0869  -0.1837   0.00    0.0
1934 525180.000  -35.316154815  149.010172448   788.3884   6   8   0.3770   0.2993   0.7569   0.1700  -0.0865  -0.1801   0.00    0.0
1934 525210.000  -35.316154666  149.010172631   788.5150   6   8   0.3750   0.2982   0.7504   0.1688  -0.0861  -0.1766   0.00    0.0
1934 525240.000  -35.316154462  149.010172839   788.6181   6   7   0.3731   0.2970   0.7441   0.1676  -0.0858  -0.1732   0.00    0.0
1934 525270.000  -35.316154335  149.010172987   788.7274   6   8   0.3711   0.2959   0.7379   0.1664  -0.0855  -0.1698   0.00    0.0
1934 525300.000  -35.316154191  149.010173126   788.8287   6   8   0.3692   0.2948   0.7319   0.1653  -0.0851  -0.1665   0.00    0.0
1934 525330.000  -35.316154031  149.010173254   788.9304   6   8   0.3673   0.2937   0.7260   0.1641  -0.0848  -0.1633   0.00    0.0
1934 525360.000  -35.316153905  149.010173405   789.0383   6   8   0.3655   0.2926   0.7203   0.1629  -0.0845  -0.1601   0.00    0.0
1934 525390.000  -35.316153774  149.010173570   789.1436   6   8   0.3636   0.2915   0.7147   0.1617  -0.0842  -0.1570   0.00    0.0
1934 525420.000  -35.316153654  149.010173703   789.2498   6   8   0.3618   0.2904   0.7092   0.1606  -0.0839  -0.1539   0.00    0.0
1934 525450.000  -35.316153488  149.010173835   789.3415   6   8   0.3601   0.2894   0.7039   0.1594  -0.0837  -0.1509   0.00    0.0
1934 525480.000  -35.316153365  149.010173962   789.4350   6   8   0.3583   0.2883   0.6987   0.1583  -0.0834  -0.1480   0.00    0.0
1934 525510.000  -35.316153266  149.010174067   789.5372   6   8   0.3566   0.2873   0.6936   0.1571  -0.0832  -0.1451   0.00    0.0
1934 525540.000  -35.316153115  149.010174189   789.6104   6   8   0.3549   0.2862   0.6886   0.1560  -0.0829  -0.1422   0.00    0.0
1934 525570.000  -35.316152978  149.010174335   789.6932   6   8   0.3533   0.2852   0.6837   0.1548  -0.0827  -0.1394   0.00    0.0
1934 525600.000  -35.316152805  149.010174475   789.7643   6   8   0.3516   0.2842   0.6790   0.1537  -0.0825  -0.1367   0.00    0.0
1934 525630.000  -35.316152685  149.010174633   789.8447   6   8   0.3500   0.2832   0.6743   0.1526  -0.0823  -0.1340   0.00    0.0
1934 525660.000  -35.316152586  149.010174750   789.9260   6   8   0.3484   0.2822   0.6698   0.1514  -0.0820  -0.1313   0.00    0.0
1934 525690.000  -35.316152438  149.010174913   789.9978   6   8   0.3469   0.2812   0.6653   0.1503  -0.0819  -0.1287   0.00    0.0
1934 525720.000  -35.316152311  149.010175069   790.0707   6   8   0.3453   0.2802   0.6610   0.1492  -0.0817  -0.1261   0.00    0.0
1934 525750.000  -35.316152138  149.010175216   790.1360   6   8   0.3438   0.2792   0.6567   0.1480  -0.0815  -0.1236   0.00    0.0
1934 525780.000  -35.316151968  149.010175326   790.1928   6   8   0.3423   0.2782   0.6526   0.1469  -0.0813  -0.1211   0.00    0.0
1934 525810.000  -35.316151793  149.010175478   790.2490   6   8   0.3408   0.2773   0.6485   0.1458  -0.0812  -0.1187   0.00    0.0
1934 525840.000  -35.316151674  149.010175617   790.3069   6   8   0.3393   0.2763   0.6445   0.1447  -0.0810  -0.1163   0.00    0.0
1934 525870.000  -35.316151548  149.010175771   790.3668   6   8   0.3379   0.2754   0.6406   0.1436  -0.0809  -0.1139   0.00    0.0
1934 525900.000  -35.316151400  149.010175934   790.4157   6   8   0.3364   0.2744   0.6368   0.1425  -0.0807  -0.1116   0.00    0.0
1934 525930.000  -35.316151267  149.010176065   790.4684   6   8   0.3350   0.2735   0.6330   0.1413  -0.0806  -0.1093   0.00    0.0
1934 525960.000  -35.316151132  149.010176195   790.5098   6   8   0.3336   0.2726   0.6293   0.1402  -0.0805  -0.1071   0.00    0.0
1934 525990.000  -35.316150987  149.010176358   790.5459   6   8   0.3322   0.2717   0.6257   0.1391  -0.0803  -0.1049   0.00    0.0
1934 526020.000  -35.316150879  149.010176444   790.6106   6   7   0.3309   0.2708   0.6226   0.1380  -0.0812  -0.1028   0.00    0.0
1934 526050.000  -35.316150780  149.010176526   790.6732   6   7   0.3295   0.2700   0.6196   0.1370  -0.0821  -0.1008   0.00    0.0
1934 526080.000  -35.316150659  149.010176610   790.7352   6   7   0.3282   0.2692   0.6166   0.1359  -0.0829  -0.0988   0.00    0.0
1934 526110.000  -35.316150543  149.010176708   790.7949   6   7   0.3269   0.2684   0.6136   0.1348  -0.0837  -0.0968   0.00    0.0
1934 526140.000  -35.316150430  149.010176808   790.8481   6   7   0.3256   0.2676   0.6107   0.1337  -0.0844  -0.0949   0.00    0.0
1934 526170.000  -35.316150307  149.010176881   790.9017   6   7   0.3243   0.2668   0.6079   0.1327  -0.0851  -0.0930   0.00    0.0
1934 526200.000  -35.316150194  149.010176951   790.9512   6   7   0.3230   0.2660   0.6051   0.1316  -0.0858  -0.0911   0.00    0.0
1934 526230.000  -35.316150050  149.010177039   791.0005   6   7   0.3218   0.2653   0.6024   0.1305  -0.0865  -0.0892   0.00    0.0
1934 526260.000  -35.316149954  149.010177108   791.0507   6   7   0.3205   0.2645   0.5997   0.1294  -0.0871  -0.0874   0.00    0.0
1934 526290.000  -35.316149872  149.010177206   791.1022   6   7   0.3193   0.2637   0.5970   0.1284  -0.0877  -0.0856   0.00    0.0
1934 526320.000  -35.316149772  149.010177276   791.1530   6   7   0.3181   0.2629   0.5944   0.1273  -0.0883  -0.0839   0.00    0.0
1934 526350.000  -35.316149678  149.010177335   791.1929   6   7   0.3169   0.2622   0.5919   0.1262  -0.0888  -0.0821   0.00    0.0
1934 526380.000  -35.316149578  149.010177400   791.2377   6   7   0.3157   0.2614   0.5894   0.1252  -0.0893  -0.0804   0.00    0.0
1934 526410.000  -35.316149493  149.010177458   791.2806   6   7   0.3145   0.2606   0.5869   0.1241  -0.0898  -0.0787   0.00    0.0
1934 526440.000  -35.316149387  149.010177548   791.3214   6   7   0.3134   0.2599   0.5845   0.1230  -0.0903  -0.0771   0.00    0.0
1934 526470.000  -35.316149317  149.010177606   791.3579   6   7   0.3122   0.2591   0.5821   0.1219  -0.0908  -0.0755   0.00    0.0
1934 526500.000  -35.316149232  149.010177675   791.3962   6   7   0.3111   0.2584   0.5798   0.1209  -0.0912  -0.0739   0.00    0.0
1934 526530.000  -35.316149159  149.010177762   791.4301   6   7   0.3099   0.2576   0.5775   0.1198  -0.0916  -0.0723   0.00    0.0
1934 526560.000  -35.316149094  149.010177848   791.4599   6   7   0.3088   0.2569   0.5752   0.1187  -0.0920  -0.0708   0.00    0.0
1934 526590.000  -35.316148981  149.010177933   791.4843   6   7   0.3077   0.2561   0.5730   0.1177  -0.0924  -0.0693   0.00    0.0
1934 526620.000  -35.316148916  149.010177978   791.5125   6   7   0.3066   0.2554   0.5708   0.1166  -0.0928  -0.0678   0.00    0.0
1934 526650.000  -35.316148851  149.010178009   791.5435   6   7   0.3055   0.2547   0.5687   0.1155  -0.0932  -0.0664   0.00    0.0
1934 526680.000  -35.316148756  149.010178085   791.5722   6   7   0.3044   0.2540   0.5666   0.1145  -0.0935  -0.0650   0.00    0.0
1934 526710.000  -35.316148684  149.010178153   791.5996   6   7   0.3034   0.2532   0.5645   0.1134  -0.0938  -0.0636   0.00    0.0
1934 526740.000  -35.316148624  149.010178213   791.6255   6   7   0.3023   0.2525   0.5625   0.1123  -0.0941  -0.0622   0.00    0.0
1934 526770.000  -35.316148510  149.010178295   791.6518   6   7   0.3013   0.2518   0.5605   0.1113  -0.0944  -0.0609   0.00    0.0
1934 526800.000  -35.316148426  149.010178364   791.6734   6   7   0.3002   0.2511   0.5585   0.1102  -0.0947  -0.0596   0.00    0.0
1934 526830.000  -35.316148325  149.010178449   791.6917   6   7   0.2992   0.2504   0.5566   0.1092  -0.0949  -0.0584   0.00    0.0
1934 526860.000  -35.316148232  149.010178540   791.7064   6   7   0.2982   0.2497   0.5547   0.1081  -0.0952  -0.0572   0.00    0.0
1934 526890.000  -35.316148135  149.010178650   791.7258   6   7   0.2972   0.2490   0.5528   0.1070  -0.0954  -0.0560   0.00    0.0
1934 526920.000  -35.316148070  149.010178720   791.7433   6   7   0.2962   0.2483   0.5509   0.1060  -0.0956  -0.0549   0.00    0.0
1934 526950.000  -35.316148003  149.010178799   791.7519   6   7   0.2952   0.2476   0.5491   0.1049  -0.0959  -0.0537   0.00    0.0
1934 526980.000  -35.316147945  149.010178903   791.7630   6   7   0.2942   0.2469   0.5473   0.1039  -0.0961  -0.0527   0.00    0.0
1934 527010.000  -35.316147884  149.010178990   791.7755   6   7   0.2933   0.2462   0.5456   0.1028  -0.0962  -0.0516   0.00    0.0
1934 527040.000  -35.316147822  149.010179074   791.7840   6   7   0.2923   0.2455   0.5439   0.1018  -0.0964  -0.0507   0.00    0.0
1934 527070.000  -35.316147776  149.010179146   791.7968   6   7   0.2914   0.2449   0.5422   0.1007  -0.0966  -0.0497   0.00    0.0
1934 527100.000  -35.316147712  149.010179223   791.8069   6   7   0.2904   0.2442   0.5405   0.0997  -0.0967  -0.0488   0.00    0.0
1934 527130.000  -35.316147662  149.010179314   791.8119   6   7   0.2895   0.2435   0.5389   0.0986  -0.0969  -0.0479   0.00    0.0
1934 527160.000  -35.316147616  149.010179390   791.8134   6   7   0.2886   0.2428   0.5372   0.0976  -0.0970  -0.0471   0.00    0.0
1934 527190.000  -35.316147581  149.010179459   791.8155   6   7   0.2876   0.2422   0.5356   0.0965  -0.0971  -0.0463   0.00    0.0
1934 527220.000  -35.316147547  149.010179551   791.8240   6   7   0.2867   0.2415   0.5341   0.0955  -0.0972  -0.0456   0.00    0.0
1934 527250.000  -35.316147493  149.010179644   791.8286   6   7   0.2858   0.2409   0.5325   0.0944  -0.0973  -0.0449   0.00    0.0
1934 527280.000  -35.316147474  149.010179704   791.8306   6   7   0.2849   0.2402   0.5310   0.0934  -0.0974  -0.0443   0.00    0.0
1934 527310.000  -35.316147450  149.010179779   791.8374   6   6   0.2840   0.2396   0.5295   0.0923  -0.0975  -0.0437   0.00    0.0
1934 527340.000  -35.316147418  149.010179874   791.8419   6   7   0.2832   0.2389   0.5281   0.0913  -0.0975  -0.0431   0.00    0.0
1934 527370.000  -35.316147375  149.010179961   791.8410   6   7   0.2823   0.2383   0.5266   0.0903  -0.0976  -0.0427   0.00    0.0
1934 527400.000  -35.316147337  149.010180037   791.8409   6   7   0.2814   0.2376   0.5252   0.0892  -0.0976  -0.0422   0.00    0.0
1934 527430.000  -35.316147307  149.010180120   791.8341   6   7   0.2806   0.2370   0.5238   0.0882  -0.0977  -0.0418   0.00    0.0
1934 527460.000  -35.316147276  149.010180217   791.8346   6   7   0.2797   0.2364   0.5224   0.0871  -0.0977  -0.0415   0.00    0.0
1934 527490.000  -35.316147257  149.010180306   791.8334   6   7   0.2789   0.2357   0.5210   0.0861  -0.0977  -0.0412   0.00    0.0
1934 527520.000  -35.316147252  149.010180364   791.8323   6   7   0.2781   0.2351   0.5197   0.0851  -0.0977  -0.0410   0.00    0.0
1934 527550.000  -35.316147220  149.010180453   791.8291   6   7   0.2772   0.2345   0.5184   0.0840  -0.0977  -0.0408   0.00    0.0
1934 527580.000  -35.316147212  149.010180526   791.8282   6   7   0.2764   0.2338   0.5171   0.0830  -0.0977  -0.0406   0.00    0.0
1934 527610.000  -35.316147182  149.010180607   791.8250   6   7   0.2756   0.2332   0.5158   0.0820  -0.0977  -0.0405   0.00    0.0
1934 527640.000  -35.316147161  149.010180699   791.8239   6   7   0.2748   0.2326   0.5145   0.0810  -0.0977  -0.0405   0.00    0.0
1934 527670.000  -35.316147082  149.010180820   791.8047   6   8   0.2739   0.2320   0.5131   0.0799  -0.0976  -0.0392   0.00    0.0
1934 527700.000  -35.316147010  149.010180901   791.7897   6   8   0.2730   0.2314   0.5117   0.0788  -0.0975  -0.0380   0.00    0.0
1934 527730.000  -35.316146932  149.010180991   791.7684   6   8   0.2721   0.2308   0.5104   0.0778  -0.0974  -0.0368   0.00    0.0
1934 527760.000  -35.316146877  149.010181073   791.7520   6   7   0.2712   0.2302   0.5090   0.0767  -0.0973  -0.0357   0.00    0.0
1934 527790.000  -35.316146804  149.010181161   791.7314   6   8   0.2704   0.2296   0.5077   0.0757  -0.0972  -0.0345   0.00    0.0
1934 527820.000  -35.316146726  149.010181287   791.7138   6   8   0.2695   0.2290   0.5063   0.0746  -0.0970  -0.0334   0.00    0.0
1934 527850.000  -35.316146674  149.010181367   791.6922   6   8   0.2686   0.2284   0.5050   0.0736  -0.0969  -0.0323   0.00    0.0
1934 527880.000  -35.316146603  149.010181447   791.6696   6   8   0.2678   0.2278   0.5038   0.0725  -0.0968  -0.0313   0.00    0.0
1934 527910.000  -35.316146541  149.010181549   791.6505   6   8   0.2669   0.2272   0.5025   0.0715  -0.0966  -0.0302   0.00    0.0
1934 527940.000  -35.316146494  149.010181621   791.6275   6   7   0.2661   0.2266   0.5013   0.0704  -0.0965  -0.0293   0.00    0.0
1934 527970.000  -35.316146448  149.010181702   791.6065   6   7   0.2653   0.2260   0.5000   0.0694  -0.0963  -0.0283   0.00    0.0
1934 528000.000  -35.316146437  149.010181806   791.5920   6   7   0.2645   0.2255   0.4990   0.0683  -0.0961  -0.0288   0.00    0.0
1934 528030.000  -35.316146422  149.010181922   791.5744   6   7   0.2638   0.2249   0.4979   0.0672  -0.0959  -0.0293   0.00    0.0
1934 528060.000  -35.316146411  149.010182018   791.5543   6   7   0.2630   0.2243   0.4969   0.0661  -0.0956  -0.0298   0.00    0.0
1934 528090.000  -35.316146403  149.010182109   791.5352   6   6   0.2623   0.2238   0.4958   0.0650  -0.0954  -0.0303   0.00    0.0
1934 528120.000  -35.316146385  149.010182202   791.5143   6   6   0.2615   0.2232   0.4948   0.0639  -0.0951  -0.0308   0.00    0.0
1934 528150.000  -35.316146363  149.010182304   791.4915   6   7   0.2608   0.2226   0.4938   0.0628  -0.0949  -0.0313   0.00    0.0
1934 528180.000  -35.316146347  149.010182418   791.4697   6   7   0.2601   0.2221   0.4928   0.0617  -0.0946  -0.0319   0.00    0.0
1934 528210.000  -35.316146339  149.010182508   791.4483   6   7   0.2593   0.2215   0.4919   0.0606  -0.0943  -0.0324   0.00    0.0
1934 528240.000  -35.316146364  149.010182600   791.4278   6   6   0.2586   0.2210   0.4909   0.0595  -0.0941  -0.0330   0.00    0.0
1934 528270.000  -35.316146380  149.010182678   791.4053   6   7   0.2579   0.2204   0.4899   0.0584  -0.0938  -0.0336   0.00    0.0
1934 528300.000  -35.316146358  149.010182795   791.3851   6   7   0.2572   0.2199   0.4890   0.0573  -0.0935  -0.0341   0.00    0.0
1934 528330.000  -35.316146363  149.010182883   791.3700   6   5   0.2565   0.2194   0.4883   0.0560  -0.0935  -0.0338   0.00    0.0
1934 528360.000  -35.316146360  149.010182965   791.3532   6   6   0.2558   0.2189   0.4876   0.0548  -0.0935  -0.0335   0.00    0.0
1934 528390.000  -35.316146372  149.010183043   791.3395   6   5   0.2552   0.2184   0.4870   0.0535  -0.0936  -0.0333   0.00    0.0
1934 528420.000  -35.316146372  149.010183125   791.3220   6   6   0.2545   0.2179   0.4863   0.0522  -0.0936  -0.0330   0.00    0.0
1934 528450.000  -35.316146348  149.010183238   791.3072   6   6   0.2538   0.2174   0.4856   0.0510  -0.0935  -0.0328   0.00    0.0
1934 528480.000  -35.316146347  149.010183319   791.2946   6   5   0.2532   0.2169   0.4850   0.0497  -0.0935  -0.0327   0.00    0.0
1934 528510.000  -35.316146360  149.010183383   791.2777   6   5   0.2525   0.2164   0.4843   0.0484  -0.0935  -0.0325   0.00    0.0
1934 528540.000  -35.316146368  149.010183475   791.2612   6   5   0.2519   0.2159   0.4837   0.0471  -0.0934  -0.0324   0.00    0.0
1934 528570.000  -35.316146367  149.010183540   791.2382   6   6   0.2512   0.2154   0.4830   0.0458  -0.0934  -0.0323   0.00    0.0
1934 528600.000  -35.316146354  149.010183618   791.2167   6   6   0.2506   0.2149   0.4824   0.0445  -0.0933  -0.0323   0.00    0.0
1934 528630.000  -35.316146376  149.010183675   791.1967   6   5   0.2499   0.2144   0.4818   0.0431  -0.0932  -0.0323   0.00    0.0
1934 528660.000  -35.316146393  149.010183737   791.1786   6   5   0.2493   0.2139   0.4811   0.0418  -0.0931  -0.0323   0.00    0.0
1934 528690.000  -35.316146396  149.010183814   791.1577   6   6   0.2486   0.2135   0.4805   0.0404  -0.0930  -0.0323   0.00    0.0
1934 528720.000  -35.316146400  149.010183903   791.1374   6   6   0.2480   0.2130   0.4799   0.0390  -0.0929  -0.0323   0.00    0.0
1934 528750.000  -35.316146410  149.010183983   791.1160   6   5   0.2474   0.2125   0.4793   0.0376  -0.0928  -0.0324   0.00    0.0
1934 528780.000  -35.316146416  149.010184057   791.0975   6   5   0.2467   0.2120   0.4787   0.0361  -0.0927  -0.0325   0.00    0.0
1934 528810.000  -35.316146423  149.010184132   791.0751   6   6   0.2461   0.2116   0.4781   0.0347  -0.0926  -0.0326   0.00    0.0
1934 528840.000  -35.316146441  149.010184213   791.0509   6   5   0.2455   0.2111   0.4775   0.0332  -0.0924  -0.0328   0.00    0.0
1934 528870.000  -35.316146437  149.010184293   791.0276   6   5   0.2449   0.2106   0.4769   0.0316  -0.0923  -0.0329   0.00    0.0
1934 528900.000  -35.316146470  149.010184372   791.0048   6   5   0.2442   0.2102   0.4763   0.0300  -0.0921  -0.0331   0.00    0.0
1934 528930.000  -35.316146472  149.010184451   790.9800   6   5   0.2436   0.2097   0.4758   0.0284  -0.0919  -0.0333   0.00    0.0
1934 528960.000  -35.316146489  149.010184531   790.9569   6   5   0.2430   0.2092   0.4752   0.0267  -0.0917  -0.0335   0.00    0.0
1934 528990.000  -35.316146496  149.010184613   790.9343   6   5   0.2424   0.2088   0.4746   0.0249  -0.0915  -0.0338   0.00    0.0
1934 529020.000  -35.316146516  149.010184698   790.9112   6   5   0.2418   0.2083   0.4740   0.0230  -0.0913  -0.0340   0.00    0.0
1934 529050.000  -35.316146525  149.010184771   790.8863   6   5   0.2412   0.2079   0.4735   0.0210  -0.0911  -0.0343   0.00    0.0
1934 529080.000  -35.316146537  149.010184841   790.8617   6   5   0.2406   0.2074   0.4729   0.0188  -0.0909  -0.0346   0.00    0.0
1934 529110.000  -35.316146557  149.010184913   790.8410   6   5   0.2400   0.2070   0.4724   0.0164  -0.0907  -0.0349   0.00    0.0
1934 529140.000  -35.316146581  149.010185000   790.8172   6   5   0.2394   0.2065   0.4718   0.0137  -0.0904  -0.0351   0.00    0.0
1934 529170.000  -35.316146606  149.010185075   790.7906   6   5   0.2388   0.2061   0.4713   0.0103  -0.0902  -0.0355   0.00    0.0
1934 529200.000  -35.316146621  149.010185176   790.7664   6   5   0.2382   0.2057   0.4707   0.0051  -0.0899  -0.0358   0.00    0.0
1934 529230.000  -35.316146643  149.010185243   790.7405   6   5   0.2376   0.2052   0.4702  -0.0072  -0.0896  -0.0361   0.00    0.0
1934 529260.000  -35.316146662  149.010185317   790.7156   6   5   0.2371   0.2048   0.4697  -0.0113  -0.0894  -0.0364   0.00    0.0
1934 529290.000  -35.316146688  149.010185406   790.6928   6   5   0.2365   0.2043   0.4691  -0.0142  -0.0891  -0.0368   0.00    0.0
1934 529320.000  -35.316146729  149.010185489   790.6654   6   5   0.2359   0.2039   0.4686  -0.0166  -0.0888  -0.0371   0.00    0.0
1934 529350.000  -35.316146762  149.010185585   790.6386   6   5   0.2353   0.2035   0.4681  -0.0186  -0.0885  -0.0375   0.00    0.0
1934 529380.000  -35.316146788  149.010185634   790.6165   6   5   0.2347   0.2031   0.4676  -0.0204  -0.0882  -0.0378   0.00    0.0
1934 529410.000  -35.316146830  149.010185710   790.5906   6   6   0.2342   0.2026   0.4671  -0.0220  -0.0879  -0.0382   0.00    0.0
1934 529440.000  -35.316146859  149.010185802   790.5630   6   5   0.2336   0.2022   0.4665  -0.0235  -0.0875  -0.0386   0.00    0.0
1934 529470.000  -35.316146896  149.010185873   790.5368   6   5   0.2330   0.2018   0.4660  -0.0248  -0.0872  -0.0389   0.00    0.0
1934 529500.000  -35.316146929  149.010185952   790.5118   6   5   0.2325   0.2014   0.4655  -0.0261  -0.0869  -0.0393   0.00    0.0
1934 529530.000  -35.316146956  149.010186055   790.4822   6   5   0.2319   0.2009   0.4650  -0.0272  -0.0865  -0.0397   0.00    0.0
1934 529560.000  -35.316147002  149.010186134   790.4555   6   5   0.2314   0.2005   0.4645  -0.0283  -0.0862  -0.0400   0.00    0.0
1934 529590.000  -35.316147026  149.010186222   790.4293   6   5   0.2308   0.2001   0.4640  -0.0293  -0.0858  -0.0404   0.00    0.0
1934 529620.000  -35.316147062  149.010186280   790.4039   6   5   0.2303   0.1997   0.4635  -0.0303  -0.0854  -0.0408   0.00    0.0
1934 529650.000  -35.316147099  149.010186347   790.3761   6   5   0.2297   0.1993   0.4630  -0.0312  -0.0850  -0.0411   0.00    0.0
1934 529680.000  -35.316147119  149.010186434   790.3480   6   5   0.2292   0.1989   0.4625  -0.0321  -0.0846  -0.0415   0.00    0.0
1934 529710.000  -35.316147176  149.010186499   790.3202   6   5   0.2286   0.1985   0.4621  -0.0329  -0.0842  -0.0419   0.00    0.0
1934 529740.000  -35.316147220  149.010186571   790.2923   6   5   0.2281   0.1981   0.4616  -0.0337  -0.0838  -0.0422   0.00    0.0
1934 529770.000  -35.316147262  149.010186645   790.2656   6   5   0.2275   0.1977   0.4611  -0.0345  -0.0834  -0.0426   0.00    0.0
1934 529800.000  -35.316147303  149.010186696   790.2402   6   5   0.2270   0.1973   0.4606  -0.0352  -0.0830  -0.0430   0.00    0.0
1934 529830.000  -35.316147350  149.010186770   790.2126   6   5   0.2265   0.1969   0.4601  -0.0358  -0.0826  -0.0433   0.00    0.0
1934 529860.000  -35.316147389  149.010186836   790.1870   6   5   0.2259   0.1965   0.4597  -0.0365  -0.0821  -0.0437   0.00    0.0
1934 529890.000  -35.316147435  149.010186902   790.1594   6   5   0.2254   0.1961   0.4592  -0.0371  -0.0817  -0.0440   0.00    0.0
1934 529920.000  -35.316147477  149.010186968   790.1332   6   5   0.2249   0.1957   0.4587  -0.0377  -0.0813  -0.0444   0.00    0.0
1934 529950.000  -35.316147513  149.010187057   790.1056   6   5   0.2244   0.1954   0.4583  -0.0383  -0.0808  -0.0447   0.00    0.0
1934 529980.000  -35.316147564  149.010187124   790.0771   6   5   0.2238   0.1950   0.4578  -0.0389  -0.0803  -0.0450   0.00    0.0
1934 530010.000  -35.316147641  149.010187195   790.0471   6   5   0.2233   0.1946   0.4574  -0.0394  -0.0799  -0.0454   0.00    0.0
1934 530040.000  -35.316147686  149.010187260   790.0180   6   6   0.2228   0.1942   0.4569  -0.0399  -0.0794  -0.0457   0.00    0.0
1934 530070.000  -35.316147714  149.010187337   789.9887   6   5   0.2223   0.1938   0.4565  -0.0404  -0.0789  -0.0460   0.00    0.0
1934 530100.000  -35.316147756  149.010187395   789.9617   6   5   0.2218   0.1935   0.4560  -0.0409  -0.0784  -0.0464   0.00    0.0
1934 530130.000  -35.316147811  149.010187459   789.9352   6   5   0.2213   0.1931   0.4556  -0.0413  -0.0779  -0.0467   0.00    0.0
1934 530160.000  -35.316147854  149.010187525   789.9075   6   5   0.2207   0.1927   0.4551  -0.0417  -0.0774  -0.0470   0.00    0.0
1934 531000.000  -35.316147947  149.010187589   789.8810   6   5   0.2202   0.1924   0.4547  -0.0420  -0.0767  -0.0472   0.00    0.0
1934 531030.000  -35.316148054  149.010187656   789.8506   6   5   0.2196   0.1920   0.4543  -0.0423  -0.0759  -0.0474   0.00    0.0
1934 531060.000  -35.316148123  149.010187725   789.8231   6   5   0.2191   0.1917   0.4538  -0.0425  -0.0752  -0.0476   0.00    0.0
1934 531090.000  -35.316148209  149.010187803   789.7939   6   5   0.2186   0.1913   0.4534  -0.0427  -0.0744  -0.0479   0.00    0.0
1934 531120.000  -35.316148291  149.010187878   789.7649   6   5   0.2180   0.1910   0.4530  -0.0429  -0.0737  -0.0480   0.00    0.0
1934 531150.000  -35.316148393  149.010187935   789.7384   6   5   0.2175   0.1906   0.4526  -0.0431  -0.0729  -0.0482   0.00    0.0
1934 531180.000  -35.316148466  149.010188008   789.7112   6   5   0.2170   0.1903   0.4522  -0.0433  -0.0722  -0.0484   0.00    0.0
1934 531210.000  -35.316148558  149.010188082   789.6853   6   5   0.2164   0.1899   0.4518  -0.0435  -0.0714  -0.0486   0.00    0.0
1934 531240.000  -35.316148652  149.010188144   789.6562   6   5   0.2159   0.1896   0.4514  -0.0437  -0.0706  -0.0488   0.00    0.0
1934 531270.000  -35.316148740  149.010188196   789.6288   6   5   0.2154   0.1893   0.4510  -0.0438  -0.0698  -0.0489   0.00    0.0
1934 531300.000  -35.316148826  149.010188271   789.6002   6   5   0.2149   0.1890   0.4506  -0.0440  -0.0690  -0.0491   0.00    0.0
1934 531330.000  -35.316148901  149.010188334   789.5719   6   5   0.2143   0.1886   0.4502  -0.0441  -0.0682  -0.0492   0.00    0.0
1934 531360.000  -35.316148989  149.010188406   789.5432   6   5   0.2138   0.1883   0.4498  -0.0443  -0.0674  -0.0494   0.00    0.0
1934 531390.000  -35.316149063  149.010188486   789.5143   6   6   0.2133   0.1880   0.4494  -0.0444  -0.0666  -0.0495   0.00    0.0
1934 531420.000  -35.316149151  149.010188565   789.4868   6   5   0.2128   0.1877   0.4490  -0.0445  -0.0658  -0.0496   0.00    0.0
1934 531450.000  -35.316149249  149.010188637   789.4599   6   5   0.2123   0.1874   0.4486  -0.0446  -0.0649  -0.0498   0.00    0.0
1934 531480.000  -35.316149335  149.010188694   789.4340   6   5   0.2118   0.1870   0.4482  -0.0447  -0.0641  -0.0499   0.00    0.0
1934 531510.000  -35.316149413  149.010188759   789.4062   6   5   0.2113   0.1867   0.4478  -0.0448  -0.0632  -0.0500   0.00    0.0
1934 531540.000  -35.316149513  149.010188818   789.3789   6   5   0.2108   0.1864   0.4475  -0.0448  -0.0624  -0.0501   0.00    0.0
1934 531570.000  -35.316149607  149.010188894   789.3504   6   5   0.2103   0.1861   0.4471  -0.0449  -0.0615  -0.0502   0.00    0.0
1934 532800.000  -35.316149729  149.010188942   789.3125   6   6   0.2098   0.1858   0.4466  -0.0446  -0.0608  -0.0501   0.00    0.0
1934 532830.000  -35.316149826  149.010188975   789.2752   6   6   0.2093   0.1855   0.4461  -0.0443  -0.0602  -0.0501   0.00    0.0
1934 532860.000  -35.316149924  149.010188997   789.2391   6   6   0.2088   0.1853   0.4456  -0.0440  -0.0595  -0.0500   0.00    0.0
1934 532890.000  -35.316150027  149.010189033   789.2035   6   6   0.2083   0.1850   0.4451  -0.0437  -0.0589  -0.0500   0.00    0.0
1934 532920.000  -35.316150128  149.010189073   789.1668   6   6   0.2078   0.1847   0.4446  -0.0434  -0.0583  -0.0499   0.00    0.0
1934 534600.000  -35.316150215  149.010189079   789.1508   6   6   0.2073   0.1845   0.4441  -0.0428  -0.0583  -0.0495   0.00    0.0
1934 535200.000  -35.316150321  149.010189070   789.1344   6   7   0.2069   0.1843   0.4434  -0.0424  -0.0587  -0.0495   0.00    0.0
1934 535230.000  -35.316150414  149.010189051   789.1206   6   7   0.2065   0.1841   0.4426  -0.0419  -0.0591  -0.0496   0.00    0.0
1934 535260.000  -35.316150491  149.010189035   789.1078   6   7   0.2060   0.1838   0.4418  -0.0414  -0.0596  -0.0496   0.00    0.0
1934 535290.000  -35.316150595  149.010189031   789.0908   6   7   0.2056   0.1836   0.4411  -0.0409  -0.0600  -0.0497   0.00    0.0
1934 535320.000  -35.316150677  149.010189045   789.0707   6   8   0.2052   0.1834   0.4402  -0.0405  -0.0602  -0.0494   0.00    0.0
1934 535350.000  -35.316150771  149.010189048   789.0495   6   8   0.2047   0.1832   0.4393  -0.0401  -0.0605  -0.0491   0.00    0.0
1934 535380.000  -35.316150844  149.010189034   789.0269   6   8   0.2043   0.1829   0.4384  -0.0397  -0.0608  -0.0489   0.00    0.0
1934 535410.000  -35.316150905  149.010189034   789.0098   6   8   0.2039   0.1827   0.4375  -0.0393  -0.0610  -0.0486   0.00    0.0
1934 535440.000  -35.316150975  149.010189030   788.9921   6   8   0.2034   0.1825   0.4367  -0.0389  -0.0613  -0.0483   0.00    0.0
1934 535470.000  -35.316151050  149.010189032   788.9728   6   8   0.2030   0.1823   0.4358  -0.0385  -0.0615  -0.0480   0.00    0.0
1934 535500.000  -35.316151122  149.010189039   788.9531   6   8   0.2026   0.1821   0.4349  -0.0381  -0.0618  -0.0477   0.00    0.0
1934 535530.000  -35.316151211  149.010189042   788.9344   6   8   0.2022   0.1818   0.4340  -0.0377  -0.0621  -0.0475   0.00    0.0
1934 535560.000  -35.316151290  149.010189022   788.9162   6   8   0.2018   0.1816   0.4331  -0.0373  -0.0623  -0.0472   0.00    0.0
1934 535590.000  -35.316151353  149.010189009   788.8982   6   8   0.2014   0.1814   0.4322  -0.0369  -0.0626  -0.0469   0.00    0.0
1934 535620.000  -35.316151430  149.010189017   788.8790   6   8   0.2010   0.1812   0.4314  -0.0365  -0.0628  -0.0466   0.00    0.0
1934 535650.000  -35.316151475  149.010189006   788.8559   6   8   0.2006   0.1809   0.4304  -0.0361  -0.0632  -0.0461   0.00    0.0
1934 535680.000  -35.316151519  149.010189004   788.8321   6   8   0.2002   0.1807   0.4294  -0.0357  -0.0635  -0.0455   0.00    0.0
1934 535710.000  -35.316151573  149.010189000   788.8135   6   8   0.1998   0.1805   0.4285  -0.0353  -0.0638  -0.0450   0.00    0.0
1934 535740.000  -35.316151592  149.010188969   788.7834   6   9   0.1994   0.1803   0.4275  -0.0348  -0.0642  -0.0443   0.00    0.0
1934 535770.000  -35.316151641  149.010188950   788.7660   6   8   0.1990   0.1801   0.4266  -0.0344  -0.0645  -0.0437   0.00    0.0
1934 535800.000  -35.316151704  149.010188935   788.7543   6   7   0.1986   0.1798   0.4256  -0.0340  -0.0649  -0.0433   0.00    0.0
1934 535830.000  -35.316151763  149.010188924   788.7408   6   7   0.1982   0.1796   0.4247  -0.0336  -0.0652  -0.0428   0.00    0.0
1934 535860.000  -35.316151779  149.010188907   788.7142   6   9   0.1978   0.1794   0.4237  -0.0332  -0.0655  -0.0421   0.00    0.0
1934 535890.000  -35.316151817  149.010188891   788.6953   6   8   0.1975   0.1792   0.4228  -0.0328  -0.0659  -0.0415   0.00    0.0
1934 535920.000  -35.316151884  149.010188874   788.6819   6   8   0.1971   0.1790   0.4219  -0.0323  -0.0663  -0.0411   0.00    0.0
1934 535950.000  -35.316151943  149.010188857   788.6711   6   8   0.1968   0.1787   0.4210  -0.0319  -0.0667  -0.0408   0.00    0.0
1934 535980.000  -35.316152005  149.010188839   788.6596   6   8   0.1964   0.1785   0.4202  -0.0314  -0.0671  -0.0404   0.00    0.0
1934 536010.000  -35.316152043  149.010188817   788.6467   6   8   0.1961   0.1783   0.4193  -0.0310  -0.0674  -0.0400   0.00    0.0
1934 536040.000  -35.316152085  149.010188795   788.6338   6   8   0.1957   0.1781   0.4184  -0.0306  -0.0678  -0.0397   0.00    0.0
1934 536070.000  -35.316152127  149.010188766   788.6196   6   8   0.1954   0.1779   0.4176  -0.0302  -0.0682  -0.0393   0.00    0.0
1934 536100.000  -35.316152181  149.010188728   788.6065   6   8   0.1950   0.1777   0.4167  -0.0298  -0.0685  -0.0388   0.00    0.0
1934 536130.000  -35.316152225  149.010188717   788.5891   6   9   0.1947   0.1774   0.4157  -0.0294  -0.0687  -0.0383   0.00    0.0
1934 536160.000  -35.316152274  149.010188724   788.5716   6   9   0.1944   0.1772   0.4147  -0.0290  -0.0688  -0.0377   0.00    0.0
1934 536190.000  -35.316152315  149.010188719   788.5523   6   9   0.1941   0.1769   0.4137  -0.0287  -0.0690  -0.0372   0.00    0.0
1934 536220.000  -35.316152360  149.010188734   788.5320   6   9   0.1937   0.1767   0.4128  -0.0283  -0.0691  -0.0366   0.00    0.0
1934 536250.000  -35.316152401  149.010188749   788.5176   6   9   0.1934   0.1764   0.4118  -0.0280  -0.0692  -0.0360   0.00    0.0
1934 536280.000  -35.316152439  149.010188755   788.4985   6   9   0.1931   0.1762   0.4108  -0.0276  -0.0694  -0.0354   0.00    0.0
1934 536310.000  -35.316152477  149.010188756   788.4831   6   8   0.1928   0.1760   0.4099  -0.0273  -0.0695  -0.0348   0.00    0.0
1934 536340.000  -35.316152507  149.010188765   788.4675   6   9   0.1925   0.1757   0.4089  -0.0270  -0.0696  -0.0341   0.00    0.0
1934 536370.000  -35.316152544  149.010188769   788.4513   6   9   0.1921   0.1755   0.4079  -0.0266  -0.0698  -0.0335   0.00    0.0
1934 536400.000  -35.316152579  149.010188769   788.4379   6   9   0.1918   0.1752   0.4070  -0.0263  -0.0699  -0.0328   0.00    0.0
1934 536430.000  -35.316152606  149.010188754   788.4290   6   8   0.1915   0.1750   0.4060  -0.0260  -0.0700  -0.0321   0.00    0.0
1934 536460.000  -35.316152635  149.010188753   788.4206   6   9   0.1912   0.1747   0.4051  -0.0257  -0.0702  -0.0314   0.00    0.0
1934 536490.000  -35.316152667  149.010188757   788.4073   6   9   0.1909   0.1745   0.4041  -0.0254  -0.0703  -0.0306   0.00    0.0
1934 536520.000  -35.316152703  149.010188749   788.3979   6   9   0.1906   0.1743   0.4032  -0.0251  -0.0704  -0.0299   0.00    0.0
1934 536550.000  -35.316152732  149.010188738   788.3894   6   8   0.1903   0.1740   0.4022  -0.0248  -0.0705  -0.0291   0.00    0.0
1934 536580.000  -35.316152762  149.010188725   788.3853   6   9   0.1900   0.1738   0.4013  -0.0246  -0.0706  -0.0283   0.00    0.0
1934 536610.000  -35.316152782  149.010188727   788.3772   6   8   0.1898   0.1735   0.4003  -0.0243  -0.0708  -0.0274   0.00    0.0
1934 536640.000  -35.316152803  149.010188720   788.3639   6   9   0.1895   0.1733   0.3994  -0.0240  -0.0709  -0.0265   0.00    0.0
1934 536670.000  -35.316152825  149.010188713   788.3530   6   9   0.1892   0.1731   0.3985  -0.0238  -0.0710  -0.0256   0.00    0.0
1934 536700.000  -35.316152862  149.010188712   788.3451   6   8   0.1889   0.1728   0.3976  -0.0235  -0.0711  -0.0247   0.00    0.0
1934 536730.000  -35.316152897  149.010188714   788.3379   6   9   0.1886   0.1726   0.3966  -0.0233  -0.0712  -0.0237   0.00    0.0
1934 536760.000  -35.316152927  149.010188709   788.3301   6   9   0.1884   0.1723   0.3957  -0.0231  -0.0713  -0.0227   0.00    0.0
1934 536790.000  -35.316152942  149.010188703   788.3227   6   9   0.1881   0.1721   0.3948  -0.0228  -0.0714  -0.0216   0.00    0.0
1934 536820.000  -35.316152961  149.010188709   788.3150   6   9   0.1878   0.1718   0.3939  -0.0226  -0.0715  -0.0205   0.00    0.0
1934 536850.000  -35.316152976  149.010188709   788.3078   6   8   0.1875   0.1716   0.3930  -0.0224  -0.0717  -0.0193   0.00    0.0
1934 536880.000  -35.316152992  149.010188698   788.2971   6   9   0.1873   0.1714   0.3921  -0.0222  -0.0718  -0.0180   0.00    0.0
1934 536910.000  -35.316153012  149.010188689   788.2897   6   9   0.1870   0.1711   0.3912  -0.0220  -0.0719  -0.0167   0.00    0.0
1934 536940.000  -35.316153026  149.010188690   788.2811   6   9   0.1867   0.1709   0.3903  -0.0218  -0.0720  -0.0152   0.00    0.0
1934 536970.000  -35.316153043  149.010188678   788.2751   6   9   0.1865   0.1706   0.3895  -0.0217  -0.0721  -0.0135   0.00    0.0
1934 537000.000  -35.316153068  149.010188668   788.2690   6   9   0.1862   0.1704   0.3886  -0.0215  -0.0721  -0.0116   0.00    0.0
1934 537030.000  -35.316153081  149.010188673   788.2653   6   9   0.1860   0.1701   0.3877  -0.0213  -0.0722  -0.0093   0.00    0.0
1934 537060.000  -35.316153101  149.010188657   788.2565   6   9   0.1857   0.1699   0.3868  -0.0212  -0.0723  -0.0063   0.00    0.0
1934 537090.000  -35.316153133  149.010188652   788.2486   6   9   0.1855   0.1696   0.3860  -0.0210  -0.0724   0.0028   0.00    0.0
1934 537120.000  -35.316153150  149.010188653   788.2421   6   9   0.1852   0.1694   0.3851  -0.0209  -0.0725   0.0074   0.00    0.0
1934 537150.000  -35.316153164  149.010188643   788.2374   6   9   0.1850   0.1692   0.3843  -0.0208  -0.0726   0.0101   0.00    0.0
1934 537180.000  -35.316153175  149.010188636   788.2309   6   9   0.1847   0.1689   0.3834  -0.0207  -0.0727   0.0122   0.00    0.0
1934 537210.000  -35.316153187  149.010188629   788.2281   6   9   0.1845   0.1687   0.3826  -0.0205  -0.0728   0.0140   0.00    0.0
1934 537240.000  -35.316153200  149.010188612   788.2221   6   9   0.1842   0.1684   0.3818  -0.0204  -0.0728   0.0156   0.00    0.0
1934 537270.000  -35.316153205  149.010188599   788.2162   6   9   0.1840   0.1682   0.3809  -0.0203  -0.0729   0.0170   0.00    0.0
1934 537300.000  -35.316153225  149.010188596   788.2112   6   9   0.1837   0.1679   0.3801  -0.0203  -0.0730   0.0183   0.00    0.0
1934 537330.000  -35.316153230  149.010188599   788.2066   6   9   0.1835   0.1677   0.3793  -0.0202  -0.0731   0.0195   0.00    0.0
1934 537360.000  -35.316153234  149.010188599   788.2025   6   9   0.1833   0.1674   0.3785  -0.0201  -0.0731   0.0207   0.00    0.0
1934 537390.000  -35.316153247  149.010188595   788.1996   6   9   0.1830   0.1672   0.3777  -0.0200  -0.0732   0.0218   0.00    0.0
1934 537420.000  -35.316153251  149.010188580   788.1925   6   9   0.1828   0.1669   0.3769  -0.0200  -0.0733   0.0228   0.00    0.0
1934 537450.000  -35.316153257  149.010188562   788.1901   6   9   0.1826   0.1667   0.3761  -0.0199  -0.0733   0.0238   0.00    0.0
1934 537480.000  -35.316153261  149.010188558   788.1865   6   9   0.1823   0.1665   0.3753  -0.0199  -0.0734   0.0247   0.00    0.0
1934 537510.000  -35.316153269  149.010188551   788.1804   6   9   0.1821   0.1662   0.3745  -0.0198  -0.0735   0.0256   0.00    0.0
1934 537540.000  -35.316153274  149.010188539   788.1763   6   9   0.1819   0.1660   0.3738  -0.0198  -0.0735   0.0264   0.00    0.0
1934 537570.000  -35.316153282  149.010188535   788.1683   6   9   0.1817   0.1657   0.3730  -0.0198  -0.0736   0.0273   0.00    0.0
1934 537600.000  -35.316153289  149.010188528   788.1640   6   9   0.1815   0.1655   0.3722  -0.0197  -0.0736   0.0280   0.00    0.0
1934 537630.000  -35.316153289  149.010188508   788.1633   6   9   0.1812   0.1652   0.3715  -0.0197  -0.0737   0.0288   0.00    0.0
1934 537660.000  -35.316153284  149.010188498   788.1576   6   9   0.1810   0.1650   0.3707  -0.0197  -0.0737   0.0295   0.00    0.0
1934 537690.000  -35.316153289  149.010188489   788.1562   6   9   0.1808   0.1647   0.3700  -0.0197  -0.0738   0.0303   0.00    0.0
1934 537720.000  -35.316153289  149.010188481   788.1517   6   9   0.1806   0.1645   0.3692  -0.0197  -0.0738   0.0310   0.00    0.0
1934 537750.000  -35.316153279  149.010188474   788.1450   6   8   0.1804   0.1642   0.3685  -0.0197  -0.0739   0.0316   0.00    0.0
1934 537780.000  -35.316153283  149.010188466   788.1397   6   9   0.1802   0.1640   0.3678  -0.0197  -0.0739   0.0323   0.00    0.0
1934 537810.000  -35.316153290  149.010188460   788.1359   6   9   0.1799   0.1637   0.3671  -0.0197  -0.0740   0.0329   0.00    0.0
1934 537840.000  -35.316153304  149.010188451   788.1311   6   9   0.1797   0.1635   0.3664  -0.0198  -0.0740   0.0335   0.00    0.0
1934 537870.000  -35.316153308  149.010188438   788.1302   6   9   0.1795   0.1632   0.3657  -0.0198  -0.0740   0.0341   0.00    0.0
1934 537900.000  -35.316153317  149.010188425   788.1264   6   9   0.1793   0.1630   0.3650  -0.0198  -0.0741   0.0347   0.00    0.0
1934 537930.000  -35.316153322  149.010188426   788.1226   6   9   0.1791   0.1627   0.3643  -0.0198  -0.0741   0.0353   0.00    0.0
1934 537960.000  -35.316153330  149.010188432   788.1203   6   9   0.1789   0.1625   0.3636  -0.0199  -0.0741   0.0358   0.00    0.0
1934 537990.000  -35.316153333  149.010188429   788.1182   6   9   0.1787   0.1622   0.3629  -0.0199  -0.0742   0.0363   0.00    0.0
1934 538020.000  -35.316153329  149.010188424   788.1106   6   9   0.1785   0.1620   0.3622  -0.0199  -0.0742   0.0369   0.00    0.0
1934 538050.000  -35.316153332  149.010188405   788.1067   6   9   0.1783   0.1617   0.3616  -0.0200  -0.0742   0.0374   0.00    0.0
1934 538080.000  -35.316153330  149.010188393   788.1025   6   9   0.1781   0.1615   0.3609  -0.0200  -0.0742   0.0379   0.00    0.0
1934 538110.000  -35.316153326  149.010188381   788.0980   6   9   0.1779   0.1612   0.3603  -0.0201  -0.0743   0.0384   0.00    0.0
1934 538140.000  -35.316153313  149.010188361   788.0930   6   9   0.1777   0.1610   0.3596  -0.0201  -0.0743   0.0388   0.00    0.0
1934 538170.000  -35.316153307  149.010188339   788.0913   6   9   0.1775   0.1607   0.3590  -0.0202  -0.0743   0.0393   0.00    0.0
1934 538200.000  -35.316153310  149.010188319   788.0899   6   9   0.1773   0.1605   0.3583  -0.0202  -0.0743   0.0397   0.00    0.0
1934 538230.000  -35.316153314  149.010188304   788.0861   6   9   0.1771   0.1602   0.3577  -0.0203  -0.0743   0.0402   0.00    0.0
1934 538260.000  -35.316153316  149.010188299   788.0820   6   9   0.1769   0.1600   0.3571  -0.0203  -0.0743   0.0406   0.00    0.0
1934 538290.000  -35.316153316  149.010188292   788.0766   6   9   0.1767   0.1597   0.3565  -0.0204  -0.0743   0.0410   0.00    0.0
1934 538320.000  -35.316153316  149.010188279   788.0731   6   9   0.1765   0.1595   0.3559  -0.0204  -0.0743   0.0414   0.00    0.0
1934 538350.000  -35.316153315  149.010188272   788.0710   6   9   0.1763   0.1592   0.3553  -0.0205  -0.0744   0.0418   0.00    0.0
1934 538380.000  -35.316153310  149.010188254   788.0668   6   9   0.1761   0.1590   0.3547  -0.0205  -0.0744   0.0422   0.00    0.0
1934 538410.000  -35.316153301  149.010188247   788.0603   6   9   0.1759   0.1587   0.3541  -0.0206  -0.0744   0.0425   0.00    0.0
1934 538440.000  -35.316153300  149.010188238   788.0563   6   9   0.1757   0.1585   0.3535  -0.0206  -0.0743   0.0429   0.00    0.0
1934 538470.000  -35.316153300  149.010188228   788.0525   6   9   0.1755   0.1582   0.3529  -0.0207  -0.0743   0.0432   0.00    0.0
1934 538500.000  -35.316153300  149.010188208   788.0453   6   9   0.1754   0.1580   0.3523  -0.0208  -0.0743   0.0436   0.00    0.0
1934 538530.000  -35.316153291  149.010188190   788.0434   6   9   0.1752   0.1577   0.3518  -0.0208  -0.0743   0.0439   0.00    0.0
1934 538560.000  -35.316153288  149.010188186   788.0392   6   8   0.1750   0.1575   0.3512  -0.0209  -0.0743   0.0442   0.00    0.0
1934 538590.000  -35.316153286  149.010188180   788.0364   6   9   0.1748   0.1572   0.3507  -0.0209  -0.0743   0.0445   0.00    0.0
1934 538620.000  -35.316153282  149.010188164   788.0328   6   8   0.1746   0.1570   0.3501  -0.0210  -0.0743   0.0448   0.00    0.0
1934 538650.000  -35.316153280  149.010188146   788.0275   6   9   0.1744   0.1567   0.3496  -0.0210  -0.0743   0.0451   0.00    0.0
1934 538680.000  -35.316153285  149.010188125   788.0230   6   9   0.1742   0.1565   0.3491  -0.0211  -0.0742   0.0454   0.00    0.0
1934 538710.000  -35.316153283  149.010188110   788.0210   6   9   0.1740   0.1562   0.3485  -0.0211  -0.0742   0.0457   0.00    0.0
1934 538740.000  -35.316153280  149.010188085   788.0161   6   9   0.1739   0.1560   0.3480  -0.0212  -0.0742   0.0460   0.00    0.0
1934 538770.000  -35.316153284  149.010188055   788.0126   6   9   0.1737   0.1557   0.3475  -0.0212  -0.0742   0.0462   0.00    0.0
1934 538800.000  -35.316153281  149.010188032   788.0089   6   9   0.1735   0.1555   0.3470  -0.0213  -0.0741   0.0465   0.00    0.0
1934 538830.000  -35.316153278  149.010188012   788.0040   6   9   0.1733   0.1552   0.3465  -0.0213  -0.0741   0.0467   0.00    0.0
1934 538860.000  -35.316153281  149.010188005   787.9984   6   9   0.1731   0.1550   0.3460  -0.0213  -0.0741   0.0470   0.00    0.0
1934 538890.000  -35.316153278  149.010188003   787.9938   6   9   0.1729   0.1547   0.3455  -0.0214  -0.0740   0.0472   0.00    0.0
1934 538920.000  -35.316153273  149.010187987   787.9877   6   9   0.1728   0.1545   0.3450  -0.0214  -0.0740   0.0474   0.00    0.0
1934 538950.000  -35.316153297  149.010187951   787.9736   6  10   0.1725   0.1542   0.3445  -0.0215  -0.0740   0.0474   0.00    0.0
1934 538980.000  -35.316153311  149.010187903   787.9628   6  10   0.1723   0.1540   0.3439  -0.0217  -0.0740   0.0474   0.00    0.0
1934 539010.000  -35.316153323  149.010187872   787.9519   6  10   0.1721   0.1537   0.3434  -0.0218  -0.0741   0.0474   0.00    0.0
1934 539040.000  -35.316153340  149.010187839   787.9420   6  10   0.1719   0.1534   0.3428  -0.0219  -0.0741   0.0474   0.00    0.0
1934 539070.000  -35.316153366  149.010187808   787.9317   6  10   0.1717   0.1532   0.3423  -0.0221  -0.0741   0.0474   0.00    0.0
1934 539100.000  -35.316153380  149.010187778   787.9227   6  10   0.1715   0.1529   0.3418  -0.0222  -0.0742   0.0474   0.00    0.0
1934 539130.000  -35.316153386  149.010187743   787.9129   6  10   0.1713   0.1527   0.3413  -0.0223  -0.0742   0.0474   0.00    0.0
1934 539160.000  -35.316153403  149.010187712   787.9027   6  10   0.1711   0.1524   0.3408  -0.0224  -0.0742   0.0473   0.00    0.0
1934 539190.000  -35.316153414  149.010187671   787.8949   6  10   0.1709   0.1521   0.3403  -0.0225  -0.0742   0.0473   0.00    0.0
1934 539220.000  -35.316153423  149.010187625   787.8871   6  10   0.1707   0.1519   0.3398  -0.0226  -0.0742   0.0473   0.00    0.0
1934 539250.000  -35.316153438  149.010187579   787.8790   6  10   0.1705   0.1516   0.3393  -0.0227  -0.0742   0.0472   0.00    0.0
1934 539280.000  -35.316153448  149.010187542   787.8680   6  10   0.1703   0.1514   0.3388  -0.0228  -0.0742   0.0472   0.00    0.0
1934 539310.000  -35.316153461  149.010187505   787.8599   6  10   0.1701   0.1511   0.3383  -0.0229  -0.0742   0.0471   0.00    0.0
1934 539340.000  -35.316153468  149.010187473   787.8510   6  10   0.1699   0.1508   0.3378  -0.0230  -0.0742   0.0471   0.00    0.0
1934 539370.000  -35.316153470  149.010187430   787.8461   6   9   0.1697   0.1506   0.3375  -0.0232  -0.0743   0.0472   0.00    0.0
1934 539400.000  -35.316153471  149.010187371   787.8419   6   9   0.1696   0.1504   0.3371  -0.0234  -0.0744   0.0473   0.00    0.0
1934 539430.000  -35.316153478  149.010187321   787.8379   6   9   0.1694   0.1501   0.3367  -0.0236  -0.0745   0.0474   0.00    0.0
1934 539460.000  -35.316153467  149.010187278   787.8330   6   9   0.1692   0.1499   0.3363  -0.0237  -0.0746   0.0475   0.00    0.0
1934 539490.000  -35.316153467  149.010187248   787.8291   6   8   0.1690   0.1496   0.3359  -0.0239  -0.0746   0.0476   0.00    0.0
1934 539520.000  -35.316153463  149.010187199   787.8208   6   9   0.1688   0.1494   0.3356  -0.0240  -0.0747   0.0477   0.00    0.0
1934 539550.000  -35.316153468  149.010187154   787.8141   6   9   0.1686   0.1491   0.3352  -0.0242  -0.0748   0.0478   0.00    0.0
1934 539580.000  -35.316153461  149.010187106   787.8093   6   9   0.1685   0.1489   0.3349  -0.0243  -0.0748   0.0478   0.00    0.0
1934 539610.000  -35.316153457  149.010187052   787.8050   6   9   0.1683   0.1487   0.3345  -0.0245  -0.0749   0.0479   0.00    0.0
1934 539640.000  -35.316153454  149.010187001   787.8000   6   9   0.1681   0.1484   0.3342  -0.0246  -0.0750   0.0479   0.00    0.0
1934 539670.000  -35.316153452  149.010186949   787.7971   6   9   0.1679   0.1482   0.3338  -0.0247  -0.0750   0.0480   0.00    0.0
1934 539700.000  -35.316153431  149.010186877   787.7886   6  10   0.1677   0.1479   0.3334  -0.0248  -0.0751   0.0481   0.00    0.0
1934 539730.000  -35.316153415  149.010186818   787.7806   6  10   0.1675   0.1477   0.3331  -0.0249  -0.0752   0.0482   0.00    0.0
1934 539760.000  -35.316153391  149.010186750   787.7700   6  10   0.1673   0.1474   0.3327  -0.0250  -0.0752   0.0483   0.00    0.0
1934 539790.000  -35.316153375  149.010186682   787.7623   6  10   0.1671   0.1472   0.3323  -0.0250  -0.0753   0.0484   0.00    0.0
1934 539820.000  -35.316153370  149.010186623   787.7560   6  10   0.1669   0.1469   0.3320  -0.0251  -0.0754   0.0485   0.00    0.0
1934 539850.000  -35.316153355  149.010186556   787.7486   6  10   0.1667   0.1467   0.3316  -0.0251  -0.0754   0.0486   0.00    0.0
1934 539880.000  -35.316153345  149.010186493   787.7398   6  10   0.1666   0.1464   0.3313  -0.0251  -0.0755   0.0487   0.00    0.0
1934 539910.000  -35.316153321  149.010186423   787.7317   6  10   0.1664   0.1462   0.3309  -0.0252  -0.0756   0.0488   0.00    0.0
1934 539940.000  -35.316153307  149.010186359   787.7259   6  10   0.1662   0.1459   0.3306  -0.0252  -0.0756   0.0488   0.00    0.0
1934 539970.000  -35.316153302  149.010186290   787.7211   6   9   0.1660   0.1457   0.3303  -0.0252  -0.0757   0.0488   0.00    0.0
1934 540000.000  -35.316153282  149.010186221   787.7178   6   9   0.1658   0.1454   0.3300  -0.0253  -0.0757   0.0487   0.00    0.0
1934 540030.000  -35.316153271  149.010186157   787.7141   6   9   0.1656   0.1452   0.3297  -0.0253  -0.0757   0.0486   0.00    0.0
1934 540060.000  -35.316153264  149.010186082   787.7109   6   9   0.1654   0.1449   0.3294  -0.0253  -0.0758   0.0486   0.00    0.0
1934 540090.000  -35.316153262  149.010185995   787.7075   6   9   0.1653   0.1447   0.3291  -0.0253  -0.0758   0.0485   0.00    0.0
1934 540120.000  -35.316153240  149.010185918   787.7039   6   8   0.1651   0.1444   0.3288  -0.0253  -0.0758   0.0484   0.00    0.0
1934 540150.000  -35.316153236  149.010185845   787.6990   6   9   0.1649   0.1442   0.3285  -0.0253  -0.0758   0.0483   0.00    0.0
1934 540180.000  -35.316153221  149.010185767   787.6963   6   9   0.1647   0.1440   0.3282  -0.0253  -0.0758   0.0483   0.00    0.0
1934 540210.000  -35.316153217  149.010185693   787.6940   6   9   0.1645   0.1437   0.3279  -0.0253  -0.0759   0.0482   0.00    0.0
1934 540240.000  -35.316153203  149.010185613   787.6907   6   9   0.1644   0.1435   0.3276  -0.0253  -0.0759   0.0481   0.00    0.0
1934 540270.000  -35.316153194  149.010185543   787.6882   6   9   0.1642   0.1432   0.3274  -0.0253  -0.0759   0.0480   0.00    0.0
1934 540300.000  -35.316153188  149.010185465   787.6869   6   9   0.1640   0.1430   0.3271  -0.0252  -0.0759   0.0479   0.00    0.0
1934 540330.000  -35.316153183  149.010185395   787.6843   6   9   0.1638   0.1427   0.3268  -0.0252  -0.0759   0.0478   0.00    0.0
1934 540360.000  -35.316153179  149.010185314   787.6831   6   9   0.1636   0.1425   0.3265  -0.0252  -0.0759   0.0476   0.00    0.0
1934 540390.000  -35.316153160  149.010185237   787.6826   6   9   0.1634   0.1422   0.3263  -0.0251  -0.0759   0.0475   0.00    0.0
1934 540420.000  -35.316153157  149.010185160   787.6812   6   9   0.1632   0.1420   0.3260  -0.0251  -0.0759   0.0474   0.00    0.0
1934 540450.000  -35.316153149  149.010185095   787.6792   6   9   0.1631   0.1418   0.3257  -0.0250  -0.0758   0.0473   0.00    0.0
1934 540480.000  -35.316153145  149.010185013   787.6770   6   9   0.1629   0.1415   0.3255  -0.0250  -0.0758   0.0472   0.00    0.0
1934 540510.000  -35.316153134  149.010184939   787.6758   6   9   0.1627   0.1413   0.3252  -0.0249  -0.0758   0.0470   0.00    0.0
1934 540540.000  -35.316153124  149.010184855   787.6734   6   9   0.1625   0.1410   0.3249  -0.0248  -0.0758   0.0469   0.00    0.0
1934 540570.000  -35.316153116  149.010184786   787.6733   6   9   0.1623   0.1408   0.3247  -0.0247  -0.0758   0.0467   0.00    0.0
1934 540600.000  -35.316153105  149.010184712   787.6735   6   9   0.1621   0.1405   0.3244  -0.0247  -0.0757   0.0466   0.00    0.0
1934 540630.000  -35.316153101  149.010184631   787.6737   6   8   0.1619   0.1403   0.3242  -0.0246  -0.0757   0.0465   0.00    0.0
1934 540660.000  -35.316153089  149.010184556   787.6725   6   9   0.1618   0.1401   0.3239  -0.0245  -0.0757   0.0463   0.00    0.0
1934 540690.000  -35.316153070  149.010184487   787.6718   6   9   0.1616   0.1398   0.3237  -0.0244  -0.0756   0.0461   0.00    0.0
1934 540720.000  -35.316153069  149.010184406   787.6706   6   9   0.1614   0.1396   0.3234  -0.0243  -0.0756   0.0460   0.00    0.0
1934 540750.000  -35.316153072  149.010184340   787.6691   6   9   0.1612   0.1393   0.3232  -0.0242  -0.0755   0.0458   0.00    0.0
1934 540780.000  -35.316153067  149.010184270   787.6677   6   9   0.1610   0.1391   0.3229  -0.0241  -0.0755   0.0457   0.00    0.0
1934 540810.000  -35.316153064  149.010184200   787.6665   6   9   0.1608   0.1389   0.3227  -0.0240  -0.0754   0.0455   0.00    0.0
1934 540840.000  -35.316153052  149.010184116   787.6664   6   9   0.1606   0.1386   0.3224  -0.0238  -0.0754   0.0453   0.00    0.0
1934 540870.000  -35.316153047  149.010184031   787.6664   6   9   0.1605   0.1384   0.3222  -0.0237  -0.0753   0.0452   0.00    0.0
1934 540900.000  -35.316153039  149.010183948   787.6683   6   8   0.1603   0.1382   0.3219  -0.0236  -0.0752   0.0450   0.00    0.0
1934 540930.000  -35.316153035  149.010183873   787.6694   6   9   0.1601   0.1379   0.3217  -0.0235  -0.0752   0.0448   0.00    0.0
1934 540960.000  -35.316153037  149.010183796   787.6689   6   9   0.1599   0.1377   0.3214  -0.0233  -0.0751   0.0446   0.00    0.0
1934 540990.000  -35.316153034  149.010183708   787.6714   6   9   0.1597   0.1374   0.3212  -0.0232  -0.0750   0.0444   0.00    0.0
1934 541020.000  -35.316153026  149.010183616   787.6728   6   9   0.1595   0.1372   0.3210  -0.0230  -0.0750   0.0442   0.00    0.0
1934 541050.000  -35.316153017  149.010183531   787.6750   6   9   0.1593   0.1370   0.3207  -0.0229  -0.0749   0.0441   0.00    0.0
1934 541080.000  -35.316153019  149.010183441   787.6761   6   9   0.1591   0.1367   0.3205  -0.0227  -0.0748   0.0439   0.00    0.0
1934 541110.000  -35.316153018  149.010183356   787.6780   6   9   0.1590   0.1365   0.3202  -0.0225  -0.0747   0.0437   0.00    0.0
1934 541140.000  -35.316153012  149.010183279   787.6806   6   9   0.1588   0.1363   0.3200  -0.0224  -0.0746   0.0435   0.00    0.0
1934 541170.000  -35.316153009  149.010183199   787.6857   6   9   0.1586   0.1360   0.3198  -0.0222  -0.0746   0.0433   0.00    0.0
1934 541200.000  -35.316153008  149.010183122   787.6893   6   9   0.1584   0.1358   0.3195  -0.0220  -0.0745   0.0431   0.00    0.0
1934 541230.000  -35.316153000  149.010183044   787.6919   6   9   0.1582   0.1356   0.3193  -0.0218  -0.0744   0.0429   0.00    0.0
1934 541260.000  -35.316152993  149.010182973   787.6947   6   9   0.1580   0.1354   0.3191  -0.0216  -0.0743   0.0427   0.00    0.0
1934 541290.000  -35.316152980  149.010182894   787.6997   6   9   0.1578   0.1351   0.3188  -0.0214  -0.0742   0.0425   0.00    0.0
1934 541320.000  -35.316152987  149.010182816   787.7022   6   9   0.1577   0.1349   0.3186  -0.0212  -0.0741   0.0423   0.00    0.0
1934 541350.000  -35.316152989  149.010182734   787.7061   6   9   0.1575   0.1347   0.3183  -0.0210  -0.0740   0.0420   0.00    0.0
1934 541380.000  -35.316153003  149.010182655   787.7093   6   9   0.1573   0.1344   0.3181  -0.0208  -0.0739   0.0418   0.00    0.0
1934 541410.000  -35.316153002  149.010182570   787.7144   6   9   0.1571   0.1342   0.3179  -0.0206  -0.0737   0.0416   0.00    0.0
1934 541440.000  -35.316153007  149.010182491   787.7174   6   9   0.1569   0.1340   0.3176  -0.0204  -0.0736   0.0414   0.00    0.0
1934 541470.000  -35.316153012  149.010182427   787.7223   6   9   0.1567   0.1338   0.3174  -0.0202  -0.0735   0.0412   0.00    0.0
1934 541500.000  -35.316153010  149.010182347   787.7271   6   9   0.1566   0.1336   0.3172  -0.0199  -0.0734   0.0410   0.00    0.0
1934 541530.000  -35.316153018  149.010182262   787.7307   6   9   0.1564   0.1333   0.3169  -0.0197  -0.0733   0.0408   0.00    0.0
1934 541560.000  -35.316153022  149.010182189   787.7369   6   9   0.1562   0.1331   0.3167  -0.0194  -0.0732   0.0405   0.00    0.0
1934 542400.000  -35.316153042  149.010182125   787.7425   6   9   0.1560   0.1329   0.3164  -0.0190  -0.0729   0.0403   0.00    0.0
1934 542430.000  -35.316153061  149.010182049   787.7514   6   9   0.1558   0.1327   0.3161  -0.0186  -0.0727   0.0401   0.00    0.0
