% program   : rnx2rtkp ver.2.4.3 b29
% inp file  : str20350.17o
% inp file  : tidb0350.17o
% inp file  : brdc0350.17n
% inp file  : igs19346.sp3
% inp file  : igs19346.clk
% obs start : 2017/02/04 00:00:00.0 GPST (week1934 518400.0s)
% obs end   : 2017/02/04 23:59:30.0 GPST (week1934 604770.0s)
%
% (x/y/z-ecef=WGS84,Q=1:fix,2:float,3:sbas,4:dgps,5:single,6:ppp,ns=# of satellites)
%  GPST                      x-ecef(m)      y-ecef(m)      z-ecef(m)   Q  ns   sdx(m)   sdy(m)   sdz(m)  sdxy(m)  sdyz(m)  sdzx(m) age(s)  ratio
2017/02/04 00:00:00.000  -4467080.3612   2683015.7096  -3667011.3105   5   6  12.9659  11.4920  13.2660 -10.9136 -10.9467  12.0034   0.00    0.0
2017/02/04 00:00:30.000  -4467079.9439   2683014.8970  -3667010.9790   5   6  12.9930  11.4324  13.3495 -10.8901 -10.9544  12.0560   0.00    0.0
2017/02/04 00:01:00.000  -4467078.9891   2683014.7731  -3667010.3795   5   6  13.0210  11.3739  13.4341 -10.8676 -10.9627  12.1096   0.00    0.0
2017/02/04 00:01:30.000  -4467080.1003   2683015.9405  -3667011.6379   5   6  13.0499  11.3163  13.5198 -10.8458 -10.9717  12.1640   0.00    0.0
2017/02/04 00:02:00.000  -4467080.5325   2683016.0048  -3667012.5564   5   6  13.0797  11.2597  13.6066 -10.8248 -10.9812  12.2194   0.00    0.0
2017/02/04 00:02:30.000  -4467079.4271   2683014.5846  -3667011.2940   5   6  13.1103  11.2041  13.6945 -10.8047 -10.9914  12.2757   0.00    0.0
2017/02/04 00:03:00.000  -4467079.8531   2683015.7642  -3667011.5077   5   6  13.1418  11.1493  13.7834 -10.7852 -11.0022  12.3328   0.00    0.0
2017/02/04 00:03:30.000  -4467080.2010   2683015.1164  -3667011.2245   5   6  13.1742  11.0955  13.8735 -10.7666 -11.0135  12.3909   0.00    0.0
2017/02/04 00:04:00.000  -4467079.7313   2683015.2448  -3667012.1252   5   6  13.2074  11.0426  13.9646 -10.7486 -11.0254  12.4498   0.00    0.0
2017/02/04 00:04:30.000  -4467079.4648   2683015.6853  -3667011.1143   5   6  13.2415  10.9905  14.0567 -10.7314 -11.0378  12.5095   0.00    0.0
2017/02/04 00:05:00.000  -4467079.1245   2683015.4958  -3667010.7293   5   6  13.2764  10.9393  14.1500 -10.7148 -11.0507  12.5701   0.00    0.0
2017/02/04 00:05:30.000  -4467078.6207   2683014.8075  -3667010.4749   5   6  13.3120  10.8889  14.2442 -10.6989 -11.0641  12.6316   0.00    0.0
2017/02/04 00:06:00.000  -4467079.3717   2683015.0249  -3667010.9628   5   6  13.3485  10.8393  14.3395 -10.6837 -11.0781  12.6938   0.00    0.0
2017/02/04 00:06:30.000  -4467078.5633   2683014.7796  -3667010.3330   5   6  13.3857  10.7904  14.4357 -10.6691 -11.0924  12.7568   0.00    0.0
2017/02/04 00:07:00.000  -4467080.6479   2683016.7232  -3667012.1319   5   6  13.4237  10.7423  14.5330 -10.6550 -11.1072  12.8206   0.00    0.0
2017/02/04 00:07:30.000  -4467079.8393   2683015.1334  -3667011.1607   5   6  13.4624  10.6949  14.6312 -10.6415 -11.1225  12.8851   0.00    0.0
2017/02/04 00:08:00.000  -4467079.5510   2683015.0516  -3667011.3207   5   6  13.5018  10.6482  14.7303 -10.6286 -11.1380  12.9503   0.00    0.0
2017/02/04 00:08:30.000  -4467081.0522   2683016.3390  -3667012.9086   5   6  13.5419  10.6022  14.8304 -10.6162 -11.1540  13.0162   0.00    0.0
2017/02/04 00:09:00.000  -4467080.7677   2683016.2239  -3667012.6858   5   6  13.5826  10.5567  14.9313 -10.6043 -11.1703  13.0827   0.00    0.0
2017/02/04 00:09:30.000  -4467078.1807   2683013.6226  -3667009.0523   5   6  13.6240  10.5120  15.0330 -10.5928 -11.1868  13.1499   0.00    0.0
2017/02/04 00:10:00.000  -4467079.9131   2683015.7218  -3667011.9726   5   6  13.6659  10.4677  15.1355 -10.5817 -11.2036  13.2176   0.00    0.0
2017/02/04 00:10:30.000  -4467080.5241   2683016.1365  -3667012.9925   5   6  13.7084  10.4241  15.2388 -10.5711 -11.2207  13.2858   0.00    0.0
2017/02/04 00:11:00.000  -4467080.0119   2683015.4574  -3667011.8079   5   6  13.7514  10.3809  15.3427 -10.5608 -11.2379  13.3546   0.00    0.0
2017/02/04 00:11:30.000  -4467079.5567   2683016.0677  -3667011.7475   5   6  13.7950  10.3383  15.4474 -10.5508 -11.2553  13.4238   0.00    0.0
2017/02/04 00:12:00.000  -4467081.0818   2683016.0392  -3667012.6217   5   6  13.8389  10.2961  15.5526 -10.5410 -11.2727  13.4934   0.00    0.0
2017/02/04 00:12:30.000  -4467079.6573   2683015.2264  -3667011.0516   5   6  13.8833  10.2543  15.6583 -10.5315 -11.2902  13.5633   0.00    0.0
2017/02/04 00:13:00.000  -4467079.0418   2683014.6244  -3667010.1085   5   6  13.9281  10.2130  15.7646 -10.5222 -11.3078  13.6335   0.00    0.0
2017/02/04 00:13:30.000  -4467079.6299   2683015.6170  -3667011.5582   5   6  13.9732  10.1720  15.8712 -10.5131 -11.3252  13.7039   0.00    0.0
2017/02/04 00:14:00.000  -4467079.9397   2683015.7323  -3667011.5586   5   6  14.0185  10.1314  15.9782 -10.5040 -11.3426  13.7745   0.00    0.0
2017/02/04 00:14:30.000  -4467079.1998   2683015.7441  -3667011.4033   5   6  14.0641  10.0910  16.0854 -10.4950 -11.3599  13.8452   0.00    0.0
2017/02/04 00:15:00.000  -4467080.3858   2683016.7843  -3667013.3693   5   6  14.1099  10.0509  16.1928 -10.4860 -11.3769  13.9159   0.00    0.0
2017/02/04 00:15:30.000  -4467080.6726   2683016.5402  -3667012.1033   5   6  14.1557  10.0110  16.3002 -10.4770 -11.3937  13.9865   0.00    0.0
2017/02/04 00:16:00.000  -4467079.8191   2683015.4919  -3667011.2315   5   6  14.2016   9.9714  16.4077 -10.4679 -11.4102  14.0569   0.00    0.0
2017/02/04 00:16:30.000  -4467080.2653   2683016.1023  -3667012.7837   5   6  14.2475   9.9319  16.5150 -10.4586 -11.4263  14.1272   0.00    0.0
2017/02/04 00:17:00.000  -4467081.3848   2683016.6580  -3667013.2038   5   6  14.2933   9.8925  16.6221 -10.4491 -11.4419  14.1971   0.00    0.0
2017/02/04 00:17:30.000  -4467079.3001   2683015.0774  -3667012.0941   5   6  14.3390   9.8531  16.7289 -10.4394 -11.4570  14.2666   0.00    0.0
2017/02/04 00:18:00.000  -4467081.7529   2683016.5141  -3667013.5584   5   6  14.3845   9.8139  16.8353 -10.4293 -11.4715  14.3355   0.00    0.0
2017/02/04 00:40:00.000  -4467084.0915   2683018.4714  -3667018.4209   5   6  14.9698   7.6501  18.7708  -8.7316 -10.3701  14.9845   0.00    0.0
2017/02/04 00:40:30.000  -4467083.9425   2683018.1668  -3667018.6928   5   6  14.9359   7.5888  18.7110  -8.6534 -10.2911  14.9132   0.00    0.0
2017/02/04 00:41:00.000  -4467084.5895   2683018.3742  -3667019.1176   5   6  14.9004   7.5275  18.6463  -8.5739 -10.2101  14.8380   0.00    0.0
2017/02/04 00:41:30.000  -4467083.3258   2683017.7024  -3667017.4068   5   6  14.8634   7.4661  18.5770  -8.4929 -10.1272  14.7590   0.00    0.0
2017/02/04 00:42:00.000  -4467083.2240   2683018.4609  -3667017.5070   5   6  14.8252   7.4047  18.5031  -8.4108 -10.0426  14.6765   0.00    0.0
2017/02/04 00:42:30.000  -4467084.3492   2683017.8588  -3667019.0653   5   6  14.7857   7.3434  18.4249  -8.3274  -9.9562  14.5904   0.00    0.0
2017/02/04 00:43:00.000  -4467084.0455   2683018.4681  -3667018.8296   5   6  14.7452   7.2823  18.3424  -8.2430  -9.8684  14.5010   0.00    0.0
2017/02/04 00:43:30.000  -4467083.3297   2683017.8614  -3667017.7020   5   6  14.7039   7.2213  18.2559  -8.1576  -9.7790  14.4084   0.00    0.0
2017/02/04 00:44:00.000  -4467084.8226   2683019.4238  -3667019.9602   5   6  14.6617   7.1606  18.1656  -8.0712  -9.6884  14.3127   0.00    0.0
2017/02/04 00:44:30.000  -4467085.8293   2683019.5561  -3667021.1011   5   6  14.6190   7.1002  18.0715  -7.9841  -9.5966  14.2141   0.00    0.0
2017/02/04 00:45:00.000  -4467084.2865   2683018.2630  -3667018.7929   5   6  14.5758   7.0402  17.9740  -7.8962  -9.5037  14.1127   0.00    0.0
2017/02/04 00:45:30.000  -4467085.1001   2683018.7754  -3667019.9005   5   6  14.5323   6.9805  17.8732  -7.8077  -9.4098  14.0086   0.00    0.0
2017/02/04 00:46:00.000  -4467083.9847   2683017.8086  -3667017.9024   5   6  14.4887   6.9214  17.7692  -7.7186  -9.3150  13.9022   0.00    0.0
2017/02/04 00:46:30.000  -4467085.4809   2683019.4071  -3667021.0467   5   6  14.4450   6.8627  17.6624  -7.6290  -9.2196  13.7934   0.00    0.0
2017/02/04 00:47:00.000  -4467084.4357   2683018.4038  -3667018.3979   5   6  14.4015   6.8046  17.5528  -7.5390  -9.1235  13.6824   0.00    0.0
2017/02/04 00:47:30.000  -4467083.9359   2683018.9433  -3667019.4277   5   6  14.3582   6.7471  17.4406  -7.4487  -9.0268  13.5694   0.00    0.0
2017/02/04 00:48:00.000  -4467084.3612   2683018.4284  -3667018.9564   5   6  14.3153   6.6902  17.3262  -7.3581  -8.9298  13.4546   0.00    0.0
2017/02/04 00:48:30.000  -4467083.8740   2683017.9839  -3667017.1384   5   6  14.2730   6.6340  17.2095  -7.2674  -8.8325  13.3381   0.00    0.0
2017/02/04 00:49:00.000  -4467085.7896   2683019.4296  -3667021.4791   5   6  14.2314   6.5785  17.0909  -7.1765  -8.7350  13.2199   0.00    0.0
2017/02/04 00:49:30.000  -4467083.8849   2683018.1198  -3667018.4155   5   6  14.1906   6.5237  16.9706  -7.0856  -8.6374  13.1004   0.00    0.0
2017/02/04 00:50:00.000  -4467083.3824   2683017.1985  -3667016.4244   5   6  14.1507   6.4697  16.8486  -6.9947  -8.5398  12.9796   0.00    0.0
2017/02/04 00:50:30.000  -4467084.2485   2683018.4572  -3667019.7068   5   6  14.1119   6.4166  16.7252  -6.9039  -8.4423  12.8575   0.00    0.0
2017/02/04 00:51:00.000  -4467084.7176   2683018.5724  -3667019.2765   5   6  14.0742   6.3642  16.6005  -6.8133  -8.3450  12.7345   0.00    0.0
2017/02/04 00:51:30.000  -4467084.6061   2683018.9457  -3667019.8308   5   6  14.0379   6.3126  16.4748  -6.7228  -8.2480  12.6105   0.00    0.0
2017/02/04 00:52:00.000  -4467083.9608   2683018.2529  -3667018.2000   5   6  14.0029   6.2620  16.3481  -6.6325  -8.1512  12.4858   0.00    0.0
2017/02/04 00:52:30.000  -4467083.9824   2683018.4368  -3667019.5585   5   6  13.9695   6.2122  16.2207  -6.5425  -8.0550  12.3603   0.00    0.0
2017/02/04 00:53:00.000  -4467083.9104   2683018.4485  -3667019.1570   5   6  13.9377   6.1633  16.0926  -6.4528  -7.9592  12.2343   0.00    0.0
2017/02/04 00:53:30.000  -4467082.7311   2683017.5894  -3667017.8301   5   6  13.9075   6.1153  15.9641  -6.3635  -7.8639  12.1078   0.00    0.0
2017/02/04 00:54:00.000  -4467084.4695   2683018.0587  -3667018.9599   5   6  13.8792   6.0682  15.8352  -6.2746  -7.7693  11.9809   0.00    0.0
2017/02/04 00:54:30.000  -4467086.1756   2683018.8286  -3667019.4745   5   6  13.8527   6.0220  15.7061  -6.1860  -7.6754  11.8537   0.00    0.0
2017/02/04 00:55:00.000  -4467085.6430   2683018.9538  -3667021.1157   5   6  13.8281   5.9767  15.5769  -6.0979  -7.5822  11.7263   0.00    0.0
2017/02/04 00:55:30.000  -4467084.2465   2683018.8898  -3667019.5678   5   6  13.8057   5.9324  15.4477  -6.0102  -7.4898  11.5987   0.00    0.0
2017/02/04 00:56:00.000  -4467085.8026   2683019.1713  -3667020.3493   5   6  13.7853   5.8890  15.3187  -5.9230  -7.3982  11.4711   0.00    0.0
2017/02/04 00:56:30.000  -4467085.3676   2683019.5209  -3667020.6870   5   6  13.7670   5.8466  15.1899  -5.8363  -7.3075  11.3435   0.00    0.0
2017/02/04 00:57:00.000  -4467084.6837   2683018.7437  -3667019.9482   5   6  13.7510   5.8050  15.0615  -5.7500  -7.2177  11.2159   0.00    0.0
2017/02/04 00:57:30.000  -4467083.6223   2683017.9881  -3667017.9769   5   6  13.7373   5.7644  14.9335  -5.6643  -7.1289  11.0884   0.00    0.0
2017/02/04 00:58:00.000  -4467084.9537   2683018.4235  -3667019.7526   5   6  13.7259   5.7247  14.8060  -5.5790  -7.0411  10.9611   0.00    0.0
2017/02/04 00:58:30.000  -4467084.8663   2683018.6283  -3667020.3898   5   6  13.7170   5.6859  14.6792  -5.4942  -6.9543  10.8340   0.00    0.0
2017/02/04 00:59:00.000  -4467085.7257   2683018.5261  -3667019.4731   5   6  13.7105   5.6480  14.5530  -5.4099  -6.8686  10.7072   0.00    0.0
2017/02/04 00:59:30.000  -4467084.6761   2683018.9441  -3667019.5903   5   6  13.7064   5.6110  14.4276  -5.3260  -6.7839  10.5806   0.00    0.0
2017/02/04 01:00:00.000  -4467083.9040   2683018.2615  -3667018.2179   5   6  13.7049   5.5749  14.3031  -5.2426  -6.7004  10.4543   0.00    0.0
2017/02/04 01:00:30.000  -4467084.6850   2683018.9537  -3667020.2622   5   6  13.7060   5.5396  14.1794  -5.1597  -6.6179  10.3283   0.00    0.0
2017/02/04 01:01:00.000  -4467085.8074   2683018.8515  -3667020.4704   5   6  13.7097   5.5053  14.0567  -5.0771  -6.5366  10.2027   0.00    0.0
2017/02/04 01:01:30.000  -4467085.6017   2683018.6918  -3667019.9262   5   6  13.7160   5.4717  13.9349  -4.9950  -6.4564  10.0775   0.00    0.0
2017/02/04 01:02:00.000  -4467084.2961   2683018.6340  -3667019.4745   5   6  13.7250   5.4391  13.8143  -4.9132  -6.3774   9.9525   0.00    0.0
2017/02/04 01:02:30.000  -4467082.6079   2683017.3067  -3667016.9833   5   6  13.7367   5.4072  13.6947  -4.8318  -6.2996   9.8280   0.00    0.0
2017/02/04 01:03:00.000  -4467082.4709   2683016.9376  -3667016.5001   5   5  19.2082  10.9698  21.5544 -12.2804 -14.0999  17.8519   0.00    0.0
2017/02/04 01:03:30.000  -4467080.5755   2683016.3299  -3667015.6767   5   5  19.0433  10.8064  21.2059 -12.0566 -13.8453  17.5320   0.00    0.0
2017/02/04 01:20:00.000  -4467082.4366   2683016.6306  -3667014.5951   5   6   8.5930   7.5277  13.5084  -6.0406  -8.3625   8.1398   0.00    0.0
2017/02/04 01:20:30.000  -4467081.2714   2683016.2580  -3667014.3770   5   6   8.6017   7.4800  13.3906  -6.0069  -8.2797   8.0834   0.00    0.0
2017/02/04 01:21:00.000  -4467081.9606   2683016.1324  -3667014.8168   5   6   8.6110   7.4331  13.2738  -5.9737  -8.1977   8.0276   0.00    0.0
2017/02/04 01:21:30.000  -4467081.9457   2683017.0146  -3667016.1820   5   6   8.6208   7.3868  13.1581  -5.9410  -8.1165   7.9723   0.00    0.0
2017/02/04 01:22:00.000  -4467081.8727   2683015.8826  -3667014.5348   5   6   8.6311   7.3413  13.0434  -5.9087  -8.0363   7.9175   0.00    0.0
2017/02/04 01:22:30.000  -4467081.7717   2683016.0010  -3667013.3780   5   6   8.6419   7.2964  12.9298  -5.8771  -7.9569   7.8634   0.00    0.0
2017/02/04 01:23:00.000  -4467082.4905   2683015.8848  -3667014.8322   5   6   8.6532   7.2522  12.8174  -5.8459  -7.8784   7.8098   0.00    0.0
2017/02/04 01:23:30.000  -4467081.3666   2683016.4271  -3667015.3394   5   6   8.6651   7.2087  12.7061  -5.8152  -7.8008   7.7568   0.00    0.0
2017/02/04 01:24:00.000  -4467080.8875   2683016.9810  -3667016.4702   5   7   8.2610   5.8124   6.2251  -4.7259  -3.7106   5.5019   0.00    0.0
2017/02/04 01:24:30.000  -4467081.5786   2683017.1350  -3667015.8757   5   7   8.2959   5.8063   6.2398  -4.7371  -3.7223   5.5283   0.00    0.0
2017/02/04 01:25:00.000  -4467081.3571   2683016.1871  -3667015.2478   5   7   8.3309   5.8002   6.2545  -4.7482  -3.7338   5.5545   0.00    0.0
2017/02/04 01:25:30.000  -4467081.7616   2683016.2436  -3667016.5871   5   7   8.3659   5.7941   6.2691  -4.7593  -3.7453   5.5806   0.00    0.0
2017/02/04 01:26:00.000  -4467080.5868   2683016.2230  -3667015.3845   5   7   8.4009   5.7881   6.2836  -4.7703  -3.7565   5.6065   0.00    0.0
2017/02/04 01:26:30.000  -4467081.1699   2683016.6814  -3667016.4593   5   7   8.4360   5.7822   6.2980  -4.7813  -3.7676   5.6324   0.00    0.0
2017/02/04 01:27:00.000  -4467081.2322   2683017.1126  -3667014.7859   5   7   8.4710   5.7763   6.3122  -4.7922  -3.7786   5.6580   0.00    0.0
2017/02/04 01:27:30.000  -4467082.1495   2683016.3104  -3667015.7314   5   7   8.5060   5.7704   6.3263  -4.8030  -3.7894   5.6836   0.00    0.0
2017/02/04 01:28:00.000  -4467081.0622   2683016.9123  -3667015.1091   5   7   8.5409   5.7645   6.3403  -4.8137  -3.8001   5.7089   0.00    0.0
2017/02/04 01:28:30.000  -4467082.8398   2683016.6032  -3667015.5008   5   7   8.5758   5.7587   6.3542  -4.8242  -3.8105   5.7341   0.00    0.0
2017/02/04 01:29:00.000  -4467081.5846   2683016.8123  -3667015.8191   5   7   8.6107   5.7529   6.3679  -4.8347  -3.8208   5.7591   0.00    0.0
2017/02/04 01:29:30.000  -4467080.8769   2683016.9591  -3667015.1630   5   7   8.6455   5.7471   6.3815  -4.8450  -3.8309   5.7838   0.00    0.0
2017/02/04 01:30:00.000  -4467079.7623   2683015.4951  -3667013.7451   5   7   8.6802   5.7413   6.3949  -4.8552  -3.8408   5.8084   0.00    0.0
2017/02/04 01:30:30.000  -4467080.6405   2683017.0305  -3667015.3429   5   7   8.7148   5.7355   6.4081  -4.8653  -3.8504   5.8327   0.00    0.0
2017/02/04 01:31:00.000  -4467080.9273   2683016.4783  -3667014.6930   5   7   8.7492   5.7297   6.4211  -4.8752  -3.8599   5.8567   0.00    0.0
2017/02/04 01:31:30.000  -4467081.0243   2683016.4761  -3667014.7052   5   7   8.7836   5.7240   6.4340  -4.8849  -3.8692   5.8805   0.00    0.0
2017/02/04 01:32:00.000  -4467080.7885   2683015.7424  -3667014.9590   5   7   8.8178   5.7182   6.4466  -4.8944  -3.8782   5.9040   0.00    0.0
2017/02/04 01:32:30.000  -4467081.3860   2683016.9059  -3667014.9482   5   7   8.8518   5.7124   6.4591  -4.9037  -3.8870   5.9273   0.00    0.0
2017/02/04 01:33:00.000  -4467080.4516   2683016.1542  -3667014.9291   5   7   8.8857   5.7066   6.4713  -4.9128  -3.8955   5.9502   0.00    0.0
2017/02/04 01:33:30.000  -4467080.5432   2683017.1597  -3667015.3473   5   7   8.9193   5.7008   6.4833  -4.9217  -3.9038   5.9728   0.00    0.0
2017/02/04 01:34:00.000  -4467079.8049   2683016.2864  -3667013.3613   5   7   8.9528   5.6949   6.4951  -4.9304  -3.9119   5.9951   0.00    0.0
2017/02/04 01:34:30.000  -4467080.6722   2683016.4105  -3667014.2483   5   7   8.9860   5.6890   6.5067  -4.9388  -3.9196   6.0170   0.00    0.0
2017/02/04 01:35:00.000  -4467080.9535   2683015.7274  -3667014.6052   5   7   9.0189   5.6831   6.5180  -4.9470  -3.9271   6.0386   0.00    0.0
2017/02/04 01:35:30.000  -4467080.5965   2683016.6472  -3667014.4313   5   7   9.0516   5.6772   6.5290  -4.9548  -3.9344   6.0598   0.00    0.0
2017/02/04 01:36:00.000  -4467080.4460   2683015.6655  -3667013.7610   5   7   9.0841   5.6712   6.5398  -4.9625  -3.9413   6.0806   0.00    0.0
2017/02/04 01:36:30.000  -4467081.5026   2683016.0995  -3667012.9204   5   7   9.1162   5.6651   6.5503  -4.9698  -3.9480   6.1010   0.00    0.0
2017/02/04 01:37:00.000  -4467080.2542   2683015.8194  -3667014.4700   5   7   9.1480   5.6590   6.5605  -4.9768  -3.9543   6.1210   0.00    0.0
2017/02/04 01:37:30.000  -4467081.2821   2683015.7967  -3667013.8739   5   7   9.1795   5.6529   6.5705  -4.9835  -3.9604   6.1406   0.00    0.0
2017/02/04 01:38:00.000  -4467080.0742   2683016.5261  -3667014.3064   5   7   9.2107   5.6467   6.5801  -4.9899  -3.9661   6.1597   0.00    0.0
2017/02/04 01:38:30.000  -4467080.5743   2683015.9799  -3667013.6979   5   7   9.2415   5.6404   6.5894  -4.9959  -3.9715   6.1784   0.00    0.0
2017/02/04 01:39:00.000  -4467079.8863   2683015.7483  -3667013.8902   5   7   9.2719   5.6340   6.5985  -5.0016  -3.9766   6.1965   0.00    0.0
2017/02/04 01:39:30.000  -4467081.5052   2683016.0985  -3667013.3218   5   7   9.3019   5.6276   6.6072  -5.0069  -3.9813   6.2142   0.00    0.0
2017/02/04 01:40:00.000  -4467078.9521   2683015.9315  -3667013.2309   5   7   9.3315   5.6211   6.6155  -5.0119  -3.9857   6.2314   0.00    0.0
2017/02/04 01:40:30.000  -4467080.5375   2683017.3133  -3667014.0108   5   7   9.3606   5.6145   6.6235  -5.0164  -3.9898   6.2481   0.00    0.0
2017/02/04 01:41:00.000  -4467080.5989   2683015.2704  -3667014.0134   5   7   9.3893   5.6079   6.6312  -5.0206  -3.9935   6.2643   0.00    0.0
2017/02/04 01:41:30.000  -4467081.1070   2683016.5340  -3667014.4729   5   7   9.4176   5.6011   6.6385  -5.0243  -3.9968   6.2799   0.00    0.0
2017/02/04 01:42:00.000  -4467078.7890   2683016.2032  -3667013.4751   5   7   9.4454   5.5943   6.6455  -5.0277  -3.9998   6.2949   0.00    0.0
2017/02/04 01:42:30.000  -4467080.8400   2683015.6337  -3667013.3545   5   7   9.4726   5.5874   6.6521  -5.0306  -4.0024   6.3094   0.00    0.0
2017/02/04 01:43:00.000  -4467079.7466   2683015.7500  -3667013.7422   5   7   9.4994   5.5803   6.6583  -5.0331  -4.0046   6.3233   0.00    0.0
2017/02/04 01:43:30.000  -4467079.7980   2683015.2515  -3667012.7333   5   7   9.5256   5.5732   6.6642  -5.0351  -4.0065   6.3366   0.00    0.0
2017/02/04 01:44:00.000  -4467082.3285   2683016.1243  -3667014.6908   5   8   7.2775   5.5659   5.9736  -5.0250  -4.0009   4.6865   0.00    0.0
2017/02/04 01:44:30.000  -4467082.9454   2683016.3907  -3667015.3793   5   8   7.2916   5.5586   5.9823  -5.0265  -4.0023   4.6999   0.00    0.0
2017/02/04 01:45:00.000  -4467083.0613   2683015.7180  -3667014.7895   5   8   7.3055   5.5512   5.9907  -5.0278  -4.0034   4.7129   0.00    0.0
2017/02/04 01:45:30.000  -4467082.1852   2683015.9592  -3667014.7748   5   8   7.3191   5.5436   5.9990  -5.0288  -4.0042   4.7257   0.00    0.0
2017/02/04 01:46:00.000  -4467081.8485   2683015.8749  -3667014.2708   5   8   7.3325   5.5360   6.0070  -5.0296  -4.0048   4.7381   0.00    0.0
2017/02/04 01:46:30.000  -4467082.2372   2683015.7211  -3667014.4404   5   8   7.3457   5.5282   6.0148  -5.0301  -4.0051   4.7502   0.00    0.0
2017/02/04 01:47:00.000  -4467082.1284   2683016.6748  -3667014.9204   5   8   7.3586   5.5203   6.0224  -5.0303  -4.0051   4.7620   0.00    0.0
2017/02/04 01:47:30.000  -4467082.3643   2683016.2955  -3667013.6625   5   8   7.3712   5.5123   6.0297  -5.0303  -4.0049   4.7735   0.00    0.0
2017/02/04 01:48:00.000  -4467081.5785   2683016.2795  -3667014.5624   5   8   7.3836   5.5041   6.0368  -5.0300  -4.0043   4.7847   0.00    0.0
2017/02/04 01:48:30.000  -4467082.1538   2683016.5660  -3667014.1560   5   8   7.3958   5.4959   6.0437  -5.0294  -4.0035   4.7955   0.00    0.0
2017/02/04 01:49:00.000  -4467082.5180   2683017.8135  -3667014.8800   5   8   7.4076   5.4875   6.0504  -5.0285  -4.0023   4.8060   0.00    0.0
2017/02/04 01:49:30.000  -4467081.1913   2683016.4973  -3667014.1746   5   8   7.4192   5.4790   6.0568  -5.0273  -4.0009   4.8161   0.00    0.0
2017/02/04 01:50:00.000  -4467083.3986   2683018.1522  -3667015.3480   5   8   7.4305   5.4704   6.0629  -5.0258  -3.9992   4.8259   0.00    0.0
2017/02/04 01:50:30.000  -4467082.1995   2683016.5687  -3667014.7586   5   8   7.4416   5.4616   6.0688  -5.0240  -3.9972   4.8353   0.00    0.0
2017/02/04 01:51:00.000  -4467081.8103   2683016.5608  -3667014.3069   5   8   7.4523   5.4527   6.0745  -5.0219  -3.9948   4.8443   0.00    0.0
2017/02/04 01:51:30.000  -4467082.5245   2683017.3351  -3667014.9652   5   8   7.4627   5.4437   6.0799  -5.0195  -3.9922   4.8530   0.00    0.0
2017/02/04 01:52:00.000  -4467081.9161   2683016.4782  -3667014.4759   5   8   7.4729   5.4346   6.0850  -5.0167  -3.9892   4.8613   0.00    0.0
2017/02/04 01:52:30.000  -4467081.8049   2683016.6464  -3667014.5858   5   8   7.4827   5.4253   6.0899  -5.0137  -3.9860   4.8693   0.00    0.0
2017/02/04 01:53:00.000  -4467081.5885   2683015.6481  -3667014.9170   5   8   7.4922   5.4159   6.0945  -5.0104  -3.9824   4.8768   0.00    0.0
2017/02/04 01:53:30.000  -4467083.0717   2683016.3061  -3667014.5181   5   8   7.5015   5.4064   6.0988  -5.0067  -3.9785   4.8840   0.00    0.0
2017/02/04 01:54:00.000  -4467082.4650   2683015.2869  -3667013.3519   5   8   7.5104   5.3967   6.1029  -5.0027  -3.9743   4.8908   0.00    0.0
2017/02/04 01:54:30.000  -4467081.6791   2683015.9317  -3667014.2716   5   8   7.5190   5.3869   6.1067  -4.9984  -3.9698   4.8972   0.00    0.0
2017/02/04 01:55:00.000  -4467080.9945   2683015.4254  -3667013.5322   5   8   7.5272   5.3770   6.1103  -4.9937  -3.9650   4.9032   0.00    0.0
2017/02/04 01:55:30.000  -4467082.4744   2683017.0001  -3667014.1869   5   8   7.5352   5.3669   6.1135  -4.9888  -3.9598   4.9088   0.00    0.0
2017/02/04 01:56:00.000  -4467081.4555   2683015.9313  -3667014.1726   5   8   7.5428   5.3567   6.1165  -4.9835  -3.9543   4.9140   0.00    0.0
2017/02/04 01:56:30.000  -4467082.8325   2683016.6765  -3667014.6938   5   8   7.5501   5.3464   6.1192  -4.9778  -3.9485   4.9189   0.00    0.0
2017/02/04 01:57:00.000  -4467082.0933   2683016.5071  -3667014.6170   5   8   7.5571   5.3359   6.1216  -4.9719  -3.9424   4.9233   0.00    0.0
2017/02/04 01:57:30.000  -4467081.7391   2683017.0560  -3667013.6555   5   8   7.5637   5.3254   6.1238  -4.9656  -3.9360   4.9273   0.00    0.0
2017/02/04 01:58:00.000  -4467081.1167   2683016.1743  -3667014.1703   5   8   7.5700   5.3146   6.1257  -4.9590  -3.9292   4.9309   0.00    0.0
2017/02/04 01:58:30.000  -4467082.2888   2683017.6005  -3667015.1117   5   8   7.5760   5.3038   6.1272  -4.9520  -3.9221   4.9341   0.00    0.0
2017/02/04 01:59:00.000  -4467080.7472   2683016.3836  -3667013.5019   5   8   7.5817   5.2929   6.1285  -4.9447  -3.9147   4.9370   0.00    0.0
2017/02/04 01:59:30.000  -4467081.7785   2683016.5963  -3667014.3750   5   8   7.5870   5.2818   6.1296  -4.9371  -3.9070   4.9394   0.00    0.0
2017/02/04 02:00:00.000  -4467081.5930   2683016.4289  -3667013.4177   5   8   7.5919   5.2706   6.1303  -4.9291  -3.8990   4.9414   0.00    0.0
2017/02/04 02:00:30.000  -4467082.2284   2683016.5089  -3667014.5437   5   8   7.5966   5.2593   6.1308  -4.9208  -3.8906   4.9429   0.00    0.0
2017/02/04 02:01:00.000  -4467082.0182   2683017.1163  -3667014.9009   5   8   7.6009   5.2478   6.1310  -4.9122  -3.8819   4.9441   0.00    0.0
2017/02/04 02:01:30.000  -4467082.4621   2683016.8956  -3667014.4613   5   8   7.6049   5.2363   6.1309  -4.9033  -3.8729   4.9449   0.00    0.0
2017/02/04 02:02:00.000  -4467081.9697   2683016.8827  -3667014.4770   5   8   7.6085   5.2246   6.1305  -4.8940  -3.8636   4.9453   0.00    0.0
2017/02/04 02:02:30.000  -4467082.5909   2683017.5315  -3667014.0381   5   8   7.6118   5.2128   6.1298  -4.8844  -3.8540   4.9453   0.00    0.0
2017/02/04 02:03:00.000  -4467082.3903   2683018.0443  -3667013.9728   5   8   7.6148   5.2009   6.1289  -4.8745  -3.8441   4.9448   0.00    0.0
2017/02/04 02:03:30.000  -4467082.0081   2683017.1681  -3667013.5830   5   8   7.6175   5.1890   6.1277  -4.8642  -3.8339   4.9440   0.00    0.0
2017/02/04 02:04:00.000  -4467082.2971   2683017.6231  -3667014.7963   5   8   7.6198   5.1769   6.1262  -4.8537  -3.8234   4.9428   0.00    0.0
2017/02/04 02:04:30.000  -4467082.5432   2683017.6405  -3667015.0064   5   8   7.6218   5.1647   6.1244  -4.8428  -3.8125   4.9412   0.00    0.0
2017/02/04 02:05:00.000  -4467082.4068   2683017.0190  -3667014.2803   5   8   7.6235   5.1524   6.1224  -4.8316  -3.8014   4.9392   0.00    0.0
2017/02/04 02:05:30.000  -4467081.6775   2683017.5024  -3667014.2492   5   8   7.6249   5.1400   6.1201  -4.8201  -3.7900   4.9368   0.00    0.0
2017/02/04 02:06:00.000  -4467082.2495   2683017.5174  -3667014.3320   5   8   7.6259   5.1276   6.1175  -4.8082  -3.7783   4.9340   0.00    0.0
2017/02/04 02:06:30.000  -4467080.8788   2683015.8949  -3667013.3807   5   8   7.6267   5.1150   6.1147  -4.7961  -3.7663   4.9308   0.00    0.0
2017/02/04 02:07:00.000  -4467079.9705   2683013.6709  -3667012.9950   5   7   8.5405   7.6177   6.7334  -6.6798  -5.4844   5.9278   0.00    0.0
2017/02/04 02:07:30.000  -4467079.9362   2683013.9743  -3667013.2277   5   7   8.5389   7.5988   6.7354  -6.6650  -5.4783   5.9275   0.00    0.0
2017/02/04 02:08:00.000  -4467080.1660   2683014.6423  -3667012.9755   5   7   8.5366   7.5794   6.7369  -6.6495  -5.4716   5.9264   0.00    0.0
2017/02/04 02:08:30.000  -4467080.6795   2683014.1129  -3667013.2668   5   7   8.5337   7.5596   6.7379  -6.6333  -5.4643   5.9247   0.00    0.0
2017/02/04 02:09:00.000  -4467079.9199   2683013.5322  -3667012.7713   5   7   8.5303   7.5394   6.7385  -6.6165  -5.4563   5.9223   0.00    0.0
2017/02/04 02:09:30.000  -4467080.6380   2683014.7167  -3667013.1465   5   7   8.5262   7.5187   6.7386  -6.5989  -5.4477   5.9192   0.00    0.0
2017/02/04 02:10:00.000  -4467079.9153   2683014.8914  -3667013.0132   5   7   8.5215   7.4977   6.7383  -6.5807  -5.4385   5.9154   0.00    0.0
2017/02/04 02:10:30.000  -4467080.9669   2683014.8303  -3667012.4336   5   7   8.5163   7.4763   6.7375  -6.5618  -5.4286   5.9109   0.00    0.0
2017/02/04 02:11:00.000  -4467080.6890   2683015.1967  -3667013.5518   5   7   8.5104   7.4544   6.7363  -6.5423  -5.4182   5.9058   0.00    0.0
2017/02/04 02:11:30.000  -4467079.9396   2683013.7058  -3667013.3892   5   7   8.5041   7.4322   6.7346  -6.5221  -5.4072   5.9000   0.00    0.0
2017/02/04 02:12:00.000  -4467080.6039   2683015.0308  -3667013.5158   5   7   8.4971   7.4097   6.7324  -6.5013  -5.3956   5.8936   0.00    0.0
2017/02/04 02:12:30.000  -4467079.6912   2683014.4819  -3667012.6983   5   7   8.4897   7.3868   6.7299  -6.4799  -5.3834   5.8865   0.00    0.0
2017/02/04 02:13:00.000  -4467081.0386   2683015.2614  -3667013.6408   5   7   8.4817   7.3635   6.7269  -6.4579  -5.3707   5.8788   0.00    0.0
2017/02/04 02:13:30.000  -4467079.9017   2683014.9403  -3667013.2943   5   7   8.4732   7.3399   6.7235  -6.4352  -5.3574   5.8705   0.00    0.0
2017/02/04 02:14:00.000  -4467080.5625   2683014.6573  -3667012.9238   5   7   8.4641   7.3160   6.7196  -6.4121  -5.3436   5.8616   0.00    0.0
2017/02/04 02:14:30.000  -4467079.5422   2683014.7685  -3667013.4280   5   7   8.4546   7.2918   6.7154  -6.3883  -5.3293   5.8521   0.00    0.0
2017/02/04 02:15:00.000  -4467080.3232   2683014.9015  -3667013.7386   5   7   8.4447   7.2673   6.7107  -6.3640  -5.3144   5.8419   0.00    0.0
2017/02/04 02:15:30.000  -4467080.1093   2683014.0020  -3667013.3848   5   7   8.4342   7.2425   6.7057  -6.3391  -5.2991   5.8312   0.00    0.0
2017/02/04 02:16:00.000  -4467079.8290   2683014.0502  -3667013.4323   5   7   8.4234   7.2175   6.7002  -6.3137  -5.2832   5.8200   0.00    0.0
2017/02/04 02:16:30.000  -4467079.8760   2683014.4069  -3667012.4390   5   7   8.4120   7.1921   6.6944  -6.2878  -5.2669   5.8081   0.00    0.0
2017/02/04 02:17:00.000  -4467080.3449   2683015.3363  -3667013.6063   5   7   8.4003   7.1666   6.6882  -6.2614  -5.2501   5.7958   0.00    0.0
2017/02/04 02:17:30.000  -4467080.6220   2683015.8969  -3667013.6452   5   7   8.3882   7.1408   6.6816  -6.2345  -5.2329   5.7829   0.00    0.0
2017/02/04 02:18:00.000  -4467080.8496   2683015.4931  -3667013.2910   5   7   8.3757   7.1148   6.6747  -6.2071  -5.2152   5.7695   0.00    0.0
2017/02/04 02:18:30.000  -4467080.5181   2683015.0202  -3667013.8720   5   7   8.3628   7.0886   6.6673  -6.1792  -5.1971   5.7555   0.00    0.0
2017/02/04 02:19:00.000  -4467080.9313   2683015.3815  -3667014.2751   5   7   8.3495   7.0623   6.6597  -6.1509  -5.1785   5.7411   0.00    0.0
2017/02/04 02:19:30.000  -4467081.4882   2683016.3175  -3667013.2838   5   7   8.3359   7.0357   6.6517  -6.1222  -5.1596   5.7262   0.00    0.0
2017/02/04 02:20:00.000  -4467080.8562   2683015.3139  -3667013.3955   5   7   8.3220   7.0090   6.6434  -6.0931  -5.1403   5.7108   0.00    0.0
2017/02/04 02:20:30.000  -4467081.5337   2683015.5252  -3667013.3508   5   7   8.3078   6.9821   6.6348  -6.0635  -5.1206   5.6950   0.00    0.0
2017/02/04 02:21:00.000  -4467080.6878   2683014.9667  -3667013.1014   5   7   8.2933   6.9551   6.6258  -6.0336  -5.1005   5.6787   0.00    0.0
2017/02/04 02:21:30.000  -4467081.3714   2683015.0963  -3667013.8272   5   7   8.2785   6.9280   6.6166  -6.0033  -5.0801   5.6620   0.00    0.0
2017/02/04 02:22:00.000  -4467080.8085   2683015.6608  -3667013.7301   5   7   8.2634   6.9007   6.6070  -5.9726  -5.0593   5.6449   0.00    0.0
2017/02/04 02:22:30.000  -4467079.5430   2683014.5808  -3667012.6704   5   7   8.2481   6.8734   6.5972  -5.9416  -5.0383   5.6274   0.00    0.0
2017/02/04 02:23:00.000  -4467080.4704   2683014.3739  -3667013.4234   5   7   8.2326   6.8460   6.5871  -5.9103  -5.0169   5.6095   0.00    0.0
2017/02/04 02:23:30.000  -4467080.0736   2683014.5825  -3667012.8840   5   7   8.2168   6.8185   6.5767  -5.8786  -4.9952   5.5913   0.00    0.0
2017/02/04 02:24:00.000  -4467080.5277   2683015.2937  -3667013.3979   5   7   8.2009   6.7909   6.5661  -5.8466  -4.9732   5.5726   0.00    0.0
2017/02/04 02:24:30.000  -4467080.7207   2683015.6064  -3667014.1330   5   7   8.1848   6.7633   6.5552  -5.8144  -4.9510   5.5537   0.00    0.0
2017/02/04 02:25:00.000  -4467081.2619   2683015.8690  -3667013.8147   5   7   8.1685   6.7357   6.5441  -5.7818  -4.9285   5.5344   0.00    0.0
2017/02/04 02:25:30.000  -4467081.2433   2683015.1191  -3667014.0564   5   7   8.1520   6.7080   6.5328  -5.7490  -4.9058   5.5147   0.00    0.0
2017/02/04 02:26:00.000  -4467079.8536   2683014.7158  -3667013.6028   5   7   8.1355   6.6803   6.5212  -5.7159  -4.8828   5.4948   0.00    0.0
2017/02/04 02:26:30.000  -4467080.1782   2683015.0534  -3667013.7468   5   7   8.1187   6.6527   6.5094  -5.6826  -4.8596   5.4746   0.00    0.0
2017/02/04 02:27:00.000  -4467081.4235   2683015.8152  -3667014.8215   5   7   8.1019   6.6250   6.4974  -5.6491  -4.8362   5.4541   0.00    0.0
2017/02/04 02:27:30.000  -4467081.2280   2683015.3780  -3667014.1019   5   7   8.0850   6.5973   6.4852  -5.6154  -4.8127   5.4334   0.00    0.0
2017/02/04 02:28:00.000  -4467080.7994   2683016.2278  -3667013.8256   5   7   8.0680   6.5697   6.4729  -5.5814  -4.7889   5.4123   0.00    0.0
2017/02/04 02:28:30.000  -4467082.3910   2683016.6667  -3667015.5225   5   7   8.0510   6.5421   6.4603  -5.5473  -4.7649   5.3911   0.00    0.0
2017/02/04 02:29:00.000  -4467082.5483   2683016.6103  -3667015.3467   5   7   8.0339   6.5146   6.4476  -5.5130  -4.7408   5.3696   0.00    0.0
2017/02/04 02:29:30.000  -4467081.0667   2683015.7036  -3667013.7257   5   7   8.0167   6.4871   6.4348  -5.4785  -4.7166   5.3479   0.00    0.0
2017/02/04 02:30:00.000  -4467081.7010   2683016.1802  -3667014.8336   5   7   7.9996   6.4597   6.4217  -5.4439  -4.6922   5.3260   0.00    0.0
2017/02/04 02:30:30.000  -4467080.3533   2683014.7483  -3667013.8721   5   7   7.9824   6.4324   6.4086  -5.4091  -4.6677   5.3039   0.00    0.0
2017/02/04 02:31:00.000  -4467082.0630   2683015.0677  -3667015.1919   5   7   7.9652   6.4051   6.3952  -5.3742  -4.6431   5.2816   0.00    0.0
2017/02/04 02:31:30.000  -4467081.9215   2683016.3297  -3667015.5973   5   7   7.9481   6.3780   6.3818  -5.3391  -4.6183   5.2592   0.00    0.0
2017/02/04 02:32:00.000  -4467081.8504   2683016.3782  -3667015.8000   5   7   7.9309   6.3509   6.3682  -5.3039  -4.5935   5.2366   0.00    0.0
2017/02/04 02:32:30.000  -4467082.2613   2683016.4652  -3667015.0460   5   7   7.9138   6.3240   6.3546  -5.2687  -4.5686   5.2138   0.00    0.0
2017/02/04 02:33:00.000  -4467082.5774   2683017.2174  -3667015.7300   5   7   7.8968   6.2972   6.3408  -5.2333  -4.5436   5.1909   0.00    0.0
2017/02/04 02:33:30.000  -4467082.6111   2683017.1782  -3667015.2115   5   7   7.8798   6.2705   6.3269  -5.1978  -4.5185   5.1679   0.00    0.0
2017/02/04 02:34:00.000  -4467083.0266   2683016.9414  -3667015.9441   5   7   7.8629   6.2439   6.3129  -5.1623  -4.4934   5.1448   0.00    0.0
2017/02/04 02:34:30.000  -4467083.8551   2683017.0810  -3667017.0049   5   8   7.7816   6.1572   5.1404  -5.0415  -4.1013   4.7517   0.00    0.0
2017/02/04 02:35:00.000  -4467083.2323   2683016.9743  -3667016.9279   5   8   7.7697   6.1346   5.1415  -5.0113  -4.0893   4.7441   0.00    0.0
2017/02/04 02:35:30.000  -4467082.4471   2683016.8819  -3667016.1258   5   8   7.7576   6.1121   5.1424  -4.9809  -4.0772   4.7363   0.00    0.0
2017/02/04 02:36:00.000  -4467083.0942   2683017.5710  -3667017.4273   5   8   7.7455   6.0896   5.1431  -4.9502  -4.0648   4.7282   0.00    0.0
2017/02/04 02:36:30.000  -4467083.5408   2683017.3667  -3667016.6898   5   8   7.7333   6.0671   5.1437  -4.9193  -4.0522   4.7199   0.00    0.0
2017/02/04 02:37:00.000  -4467084.0648   2683016.9288  -3667017.1117   5   8   7.7210   6.0446   5.1442  -4.8882  -4.0394   4.7113   0.00    0.0
2017/02/04 02:37:30.000  -4467082.7006   2683016.8678  -3667017.1324   5   8   7.7087   6.0222   5.1445  -4.8569  -4.0265   4.7025   0.00    0.0
2017/02/04 02:38:00.000  -4467083.0459   2683018.0847  -3667016.6824   5   8   7.6963   5.9998   5.1446  -4.8253  -4.0133   4.6935   0.00    0.0
2017/02/04 02:38:30.000  -4467084.6333   2683018.0118  -3667017.4458   5   8   7.6839   5.9775   5.1446  -4.7935  -4.0000   4.6843   0.00    0.0
2017/02/04 02:39:00.000  -4467082.6360   2683017.2767  -3667016.2089   5   8   7.6715   5.9552   5.1445  -4.7616  -3.9866   4.6749   0.00    0.0
2017/02/04 02:39:30.000  -4467083.3505   2683017.7115  -3667017.1057   5   8   7.6590   5.9330   5.1442  -4.7294  -3.9729   4.6653   0.00    0.0
2017/02/04 02:40:00.000  -4467082.8146   2683016.4391  -3667017.0983   5   7   7.9668   5.9184   6.2617  -4.6255  -3.8223   5.4459   0.00    0.0
2017/02/04 02:40:30.000  -4467083.2556   2683016.9504  -3667016.5341   5   7   7.9708   5.8951   6.2901  -4.5972  -3.8184   5.4662   0.00    0.0
2017/02/04 02:41:00.000  -4467082.0250   2683016.5824  -3667015.8235   5   7   7.9751   5.8720   6.3187  -4.5689  -3.8145   5.4867   0.00    0.0
2017/02/04 02:41:30.000  -4467082.5095   2683017.3294  -3667015.4651   5   7   7.9797   5.8492   6.3475  -4.5407  -3.8105   5.5075   0.00    0.0
2017/02/04 02:42:00.000  -4467082.2434   2683017.1943  -3667014.7567   5   7   7.9847   5.8265   6.3767  -4.5126  -3.8065   5.5285   0.00    0.0
2017/02/04 02:42:30.000  -4467082.2623   2683017.2441  -3667014.1784   5   7   7.9901   5.8041   6.4061  -4.4845  -3.8024   5.5498   0.00    0.0
2017/02/04 02:43:00.000  -4467082.5842   2683016.8587  -3667014.9365   5   7   7.9958   5.7818   6.4357  -4.4564  -3.7983   5.5714   0.00    0.0
2017/02/04 02:43:30.000  -4467082.5447   2683017.5263  -3667015.5700   5   7   8.0018   5.7598   6.4656  -4.4283  -3.7941   5.5932   0.00    0.0
2017/02/04 02:44:00.000  -4467082.8592   2683017.4688  -3667016.5371   5   7   8.0083   5.7380   6.4958  -4.4003  -3.7899   5.6153   0.00    0.0
2017/02/04 02:44:30.000  -4467082.3604   2683017.5375  -3667015.8165   5   7   8.0151   5.7164   6.5262  -4.3723  -3.7856   5.6376   0.00    0.0
2017/02/04 02:45:00.000  -4467083.2449   2683016.8783  -3667015.4872   5   7   8.0222   5.6950   6.5569  -4.3443  -3.7812   5.6602   0.00    0.0
2017/02/04 02:45:30.000  -4467082.0848   2683015.8814  -3667016.0209   5   6  12.5671  13.3611   7.4293 -11.6434  -7.4704   8.0930   0.00    0.0
2017/02/04 02:46:00.000  -4467081.5725   2683015.8777  -3667015.5537   5   6  12.5412  13.2551   7.4734 -11.5676  -7.4718   8.1217   0.00    0.0
2017/02/04 02:46:30.000  -4467082.7796   2683016.8592  -3667016.3658   5   6  12.5171  13.1511   7.5180 -11.4936  -7.4738   8.1512   0.00    0.0
2017/02/04 02:47:00.000  -4467081.4203   2683015.9960  -3667015.0251   5   6  12.4947  13.0492   7.5633 -11.4213  -7.4762   8.1815   0.00    0.0
2017/02/04 02:47:30.000  -4467082.6743   2683015.8359  -3667015.4596   5   6  12.4741  12.9491   7.6092 -11.3507  -7.4791   8.2126   0.00    0.0
2017/02/04 02:48:00.000  -4467083.5453   2683017.1201  -3667016.1445   5   6  12.4552  12.8511   7.6557 -11.2819  -7.4826   8.2445   0.00    0.0
2017/02/04 02:48:30.000  -4467081.9899   2683016.6072  -3667015.6493   5   6  12.4380  12.7549   7.7028 -11.2147  -7.4866   8.2773   0.00    0.0
2017/02/04 02:49:00.000  -4467082.7980   2683016.5633  -3667016.0814   5   6  12.4225  12.6605   7.7506 -11.1493  -7.4911   8.3109   0.00    0.0
2017/02/04 02:49:30.000  -4467081.1525   2683016.1450  -3667013.8291   5   6  12.4087  12.5680   7.7991 -11.0855  -7.4961   8.3454   0.00    0.0
2017/02/04 02:50:00.000  -4467081.3139   2683015.8713  -3667013.8780   5   6  12.3967  12.4773   7.8482 -11.0233  -7.5016   8.3808   0.00    0.0
2017/02/04 02:50:30.000  -4467081.4474   2683016.4030  -3667014.8445   5   6  12.3863  12.3884   7.8981 -10.9628  -7.5077   8.4170   0.00    0.0
2017/02/04 02:51:00.000  -4467081.9360   2683016.8234  -3667015.5072   5   6  12.3777  12.3011   7.9486 -10.9039  -7.5144   8.4542   0.00    0.0
2017/02/04 02:51:30.000  -4467081.4640   2683016.0235  -3667014.2290   5   6  12.3707  12.2156   7.9999 -10.8465  -7.5215   8.4923   0.00    0.0
2017/02/04 02:52:00.000  -4467082.4081   2683016.2536  -3667015.0269   5   6  12.3654  12.1318   8.0519 -10.7908  -7.5292   8.5312   0.00    0.0
2017/02/04 02:52:30.000  -4467081.7615   2683016.2453  -3667014.7751   5   6  12.3618  12.0496   8.1046 -10.7366  -7.5375   8.5712   0.00    0.0
2017/02/04 02:53:00.000  -4467082.4304   2683016.8787  -3667015.0082   5   6  12.3600  11.9690   8.1581 -10.6840  -7.5463   8.6121   0.00    0.0
2017/02/04 02:53:30.000  -4467081.5121   2683016.0840  -3667014.5206   5   6  12.3598  11.8900   8.2124 -10.6329  -7.5556   8.6539   0.00    0.0
2017/02/04 02:54:00.000  -4467081.1976   2683015.2685  -3667014.3628   5   6  12.3613  11.8125   8.2674 -10.5833  -7.5656   8.6968   0.00    0.0
2017/02/04 02:54:30.000  -4467081.2375   2683015.7491  -3667013.8464   5   6  12.3645  11.7366   8.3232 -10.5352  -7.5760   8.7406   0.00    0.0
2017/02/04 02:55:00.000  -4467081.8031   2683015.6675  -3667015.2014   5   6  12.3693  11.6621   8.3798 -10.4886  -7.5871   8.7854   0.00    0.0
2017/02/04 02:55:30.000  -4467081.5580   2683016.0786  -3667014.0493   5   6  12.3759  11.5892   8.4373 -10.4435  -7.5986   8.8313   0.00    0.0
2017/02/04 02:56:00.000  -4467081.9554   2683016.1104  -3667015.2627   5   6  12.3842  11.5177   8.4956 -10.3999  -7.6108   8.8782   0.00    0.0
2017/02/04 02:56:30.000  -4467082.1735   2683016.2750  -3667014.4280   5   6  12.3941  11.4476   8.5547 -10.3577  -7.6235   8.9262   0.00    0.0
2017/02/04 02:57:00.000  -4467081.7941   2683015.9143  -3667014.7633   5   6  12.4058  11.3789   8.6147 -10.3169  -7.6368   8.9752   0.00    0.0
2017/02/04 02:57:30.000  -4467081.3673   2683015.9505  -3667013.7078   5   6  12.4192  11.3116   8.6755 -10.2776  -7.6507   9.0253   0.00    0.0
2017/02/04 02:58:00.000  -4467081.1350   2683016.0204  -3667013.3812   5   6  12.4343  11.2456   8.7373 -10.2396  -7.6651   9.0764   0.00    0.0
2017/02/04 02:58:30.000  -4467082.8696   2683016.5956  -3667015.5969   5   6  12.4511  11.1810   8.7999 -10.2031  -7.6801   9.1287   0.00    0.0
2017/02/04 02:59:00.000  -4467082.1093   2683015.7459  -3667014.9456   5   6  12.4696  11.1177   8.8635 -10.1680  -7.6956   9.1822   0.00    0.0
2017/02/04 02:59:30.000  -4467081.1011   2683015.5840  -3667013.8577   5   6  12.4898  11.0556   8.9280 -10.1342  -7.7118   9.2367   0.00    0.0
2017/02/04 03:00:00.000  -4467082.2876   2683015.6396  -3667015.0704   5   6  12.5118  10.9948   8.9934 -10.1019  -7.7285   9.2924   0.00    0.0
2017/02/04 03:00:30.000  -4467080.3836   2683015.9419  -3667013.4632   5   6  12.5355  10.9353   9.0598 -10.0708  -7.7458   9.3493   0.00    0.0
2017/02/04 03:01:00.000  -4467081.0394   2683015.6868  -3667013.4997   5   6  12.5610  10.8769   9.1271 -10.0412  -7.7637   9.4073   0.00    0.0
2017/02/04 03:01:30.000  -4467082.0676   2683015.5930  -3667014.6547   5   6  12.5882  10.8198   9.1954 -10.0128  -7.7821   9.4666   0.00    0.0
2017/02/04 03:02:00.000  -4467080.9306   2683015.3140  -3667014.2290   5   6  12.6171  10.7638   9.2648  -9.9859  -7.8011   9.5271   0.00    0.0
2017/02/04 03:02:30.000  -4467081.7931   2683015.2911  -3667014.7195   5   6  12.6479  10.7089   9.3351  -9.9602  -7.8207   9.5887   0.00    0.0
2017/02/04 03:03:00.000  -4467082.4798   2683017.6386  -3667014.7398   5   6  12.6804  10.6552   9.4064  -9.9358  -7.8409   9.6517   0.00    0.0
2017/02/04 03:03:30.000  -4467081.1973   2683015.3403  -3667014.3109   5   6  12.7147  10.6026   9.4788  -9.9128  -7.8617   9.7159   0.00    0.0
2017/02/04 03:04:00.000  -4467081.1651   2683014.9892  -3667013.6993   5   6  12.7508  10.5511   9.5523  -9.8910  -7.8830   9.7813   0.00    0.0
2017/02/04 03:04:30.000  -4467081.2381   2683015.6301  -3667013.9694   5   6  12.7887  10.5007   9.6268  -9.8705  -7.9049   9.8481   0.00    0.0
2017/02/04 03:05:00.000  -4467082.3370   2683016.0899  -3667014.6271   5   6  12.8284  10.4513   9.7023  -9.8513  -7.9274   9.9161   0.00    0.0
2017/02/04 03:05:30.000  -4467080.8811   2683014.6067  -3667013.4093   5   6  12.8700  10.4029   9.7790  -9.8334  -7.9505   9.9855   0.00    0.0
2017/02/04 03:06:00.000  -4467081.3235   2683015.3654  -3667014.5883   5   6  12.9134  10.3556   9.8567  -9.8167  -7.9741  10.0562   0.00    0.0
2017/02/04 03:06:30.000  -4467082.3035   2683016.1314  -3667014.6286   5   6  12.9586  10.3092   9.9356  -9.8012  -7.9982  10.1282   0.00    0.0
2017/02/04 03:07:00.000  -4467082.0692   2683016.6642  -3667014.6096   5   6  13.0057  10.2638  10.0155  -9.7870  -8.0230  10.2016   0.00    0.0
2017/02/04 03:07:30.000  -4467081.0460   2683015.7870  -3667013.8885   5   6  13.0547  10.2194  10.0966  -9.7741  -8.0483  10.2764   0.00    0.0
2017/02/04 03:08:00.000  -4467081.2647   2683015.4305  -3667013.3200   5   6  13.1056  10.1759  10.1788  -9.7623  -8.0741  10.3525   0.00    0.0
2017/02/04 03:08:30.000  -4467080.9638   2683015.4629  -3667014.1156   5   6  13.1584  10.1333  10.2622  -9.7518  -8.1005  10.4301   0.00    0.0
2017/02/04 03:09:00.000  -4467080.7721   2683015.2995  -3667013.4063   5   6  13.2130  10.0916  10.3467  -9.7424  -8.1275  10.5090   0.00    0.0
2017/02/04 03:09:30.000  -4467082.1960   2683016.2671  -3667014.5094   5   6  13.2696  10.0508  10.4324  -9.7342  -8.1550  10.5894   0.00    0.0
2017/02/04 03:10:00.000  -4467082.2804   2683016.9356  -3667014.4157   5   6  13.3281  10.0109  10.5193  -9.7272  -8.1830  10.6712   0.00    0.0
2017/02/04 03:10:30.000  -4467081.6718   2683015.5998  -3667014.1481   5   6  13.3886   9.9718  10.6073  -9.7214  -8.2115  10.7545   0.00    0.0
2017/02/04 03:11:00.000  -4467082.4840   2683016.5416  -3667014.6981   5   6  13.4510   9.9335  10.6965  -9.7167  -8.2405  10.8391   0.00    0.0
2017/02/04 03:11:30.000  -4467080.8538   2683015.5238  -3667013.3767   5   6  13.5154   9.8960  10.7868  -9.7131  -8.2701  10.9253   0.00    0.0
2017/02/04 03:12:00.000  -4467082.1176   2683016.2495  -3667014.3522   5   6  13.5817   9.8593  10.8784  -9.7107  -8.3001  11.0129   0.00    0.0
2017/02/04 03:12:30.000  -4467081.8037   2683015.3985  -3667013.8809   5   6  13.6500   9.8234  10.9711  -9.7094  -8.3306  11.1020   0.00    0.0
2017/02/04 03:13:00.000  -4467081.2662   2683015.8816  -3667013.5810   5   6  13.7203   9.7882  11.0650  -9.7091  -8.3616  11.1925   0.00    0.0
2017/02/04 03:13:30.000  -4467080.5604   2683015.0867  -3667014.0834   5   6  13.7926   9.7537  11.1601  -9.7100  -8.3930  11.2845   0.00    0.0
2017/02/04 03:14:00.000  -4467079.9974   2683014.9992  -3667012.4799   5   6  13.8669   9.7199  11.2563  -9.7118  -8.4249  11.3780   0.00    0.0
2017/02/04 03:14:30.000  -4467081.0453   2683015.3628  -3667012.7103   5   6  13.9432   9.6868  11.3537  -9.7147  -8.4572  11.4729   0.00    0.0
2017/02/04 03:15:00.000  -4467081.5366   2683016.4040  -3667013.7793   5   6  14.0215   9.6544  11.4523  -9.7187  -8.4899  11.5693   0.00    0.0
2017/02/04 03:15:30.000  -4467081.8121   2683016.2014  -3667014.4424   5   6  14.1018   9.6226  11.5520  -9.7236  -8.5229  11.6672   0.00    0.0
2017/02/04 03:16:00.000  -4467081.2906   2683015.6314  -3667013.5105   5   6  14.1841   9.5914  11.6528  -9.7295  -8.5563  11.7666   0.00    0.0
2017/02/04 03:30:00.000  -4467082.5380   2683016.3288  -3667014.6236   5   6  17.2033   8.8517  14.7598 -10.1193  -9.4776  14.9949   0.00    0.0
2017/02/04 03:30:30.000  -4467080.8427   2683015.4793  -3667014.1051   5   6  17.3280   8.8249  14.8689 -10.1320  -9.5011  15.1153   0.00    0.0
2017/02/04 03:31:00.000  -4467082.7281   2683016.4486  -3667014.2998   5   6  17.4527   8.7977  14.9765 -10.1436  -9.5231  15.2347   0.00    0.0
2017/02/04 03:31:30.000  -4467082.3484   2683015.8362  -3667014.2960   5   6  17.5772   8.7701  15.0824 -10.1541  -9.5435  15.3530   0.00    0.0
2017/02/04 03:32:00.000  -4467082.1172   2683015.9001  -3667014.0722   5   6  17.7016   8.7419  15.1866 -10.1634  -9.5621  15.4700   0.00    0.0
2017/02/04 03:32:30.000  -4467083.1314   2683016.9040  -3667015.5663   5   6  17.8255   8.7132  15.2887 -10.1713  -9.5789  15.5856   0.00    0.0
2017/02/04 03:33:00.000  -4467083.7618   2683016.6500  -3667014.9915   5   6  17.9488   8.6838  15.3886 -10.1777  -9.5938  15.6995   0.00    0.0
2017/02/04 03:33:30.000  -4467083.4670   2683016.4053  -3667015.1949   5   6  18.0712   8.6538  15.4861 -10.1825  -9.6066  15.8115   0.00    0.0
2017/02/04 03:34:00.000  -4467081.3060   2683015.7854  -3667013.8049   5   6  18.1927   8.6231  15.5809 -10.1855  -9.6173  15.9214   0.00    0.0
2017/02/04 03:34:30.000  -4467082.3603   2683016.7904  -3667014.7296   5   6  18.3129   8.5917  15.6730 -10.1867  -9.6257  16.0291   0.00    0.0
2017/02/04 03:35:00.000  -4467081.7005   2683015.5856  -3667013.6770   5   6  18.4318   8.5596  15.7619 -10.1859  -9.6317  16.1342   0.00    0.0
2017/02/04 03:35:30.000  -4467080.8520   2683015.9650  -3667012.5803   5   6  18.5490   8.5266  15.8476 -10.1830  -9.6353  16.2365   0.00    0.0
2017/02/04 03:36:00.000  -4467081.6826   2683015.6734  -3667013.5219   5   6  18.6644   8.4928  15.9299 -10.1778  -9.6362  16.3360   0.00    0.0
2017/02/04 03:36:30.000  -4467081.7889   2683015.6844  -3667013.1796   5   6  18.7778   8.4582  16.0084 -10.1702  -9.6344  16.4322   0.00    0.0
2017/02/04 03:37:00.000  -4467083.3453   2683016.3217  -3667015.2606   5   6  18.8890   8.4227  16.0831 -10.1602  -9.6299  16.5251   0.00    0.0
2017/02/04 03:37:30.000  -4467082.3903   2683015.8533  -3667014.4855   5   6  18.9977   8.3863  16.1536 -10.1475  -9.6225  16.6144   0.00    0.0
2017/02/04 03:38:00.000  -4467082.2138   2683016.2393  -3667013.7656   5   6  19.1038   8.3490  16.2199 -10.1322  -9.6121  16.6998   0.00    0.0
2017/02/04 03:38:30.000  -4467081.9741   2683016.1192  -3667013.5414   5   6  19.2070   8.3109  16.2818 -10.1140  -9.5987  16.7813   0.00    0.0
2017/02/04 03:39:00.000  -4467081.6422   2683015.8944  -3667014.0077   5   6  19.3073   8.2717  16.3389 -10.0928  -9.5821  16.8586   0.00    0.0
2017/02/04 03:39:30.000  -4467081.8254   2683015.4895  -3667013.5414   5   6  19.4042   8.2317  16.3913 -10.0687  -9.5624  16.9314   0.00    0.0
2017/02/04 04:00:00.000  -4467084.5336   2683015.8635  -3667014.9999   5   7   8.7486   6.3026   8.6263  -5.3275  -5.8403   6.3388   0.00    0.0
2017/02/04 04:00:30.000  -4467083.9078   2683016.5166  -3667014.1973   5   7   8.7563   6.2758   8.6182  -5.3036  -5.8173   6.3323   0.00    0.0
2017/02/04 04:01:00.000  -4467083.5536   2683016.7029  -3667013.9353   5   7   8.7641   6.2490   8.6093  -5.2796  -5.7939   6.3253   0.00    0.0
2017/02/04 04:01:30.000  -4467083.7384   2683016.5392  -3667014.4596   5   7   8.7719   6.2223   8.5995  -5.2554  -5.7700   6.3177   0.00    0.0
2017/02/04 04:02:00.000  -4467084.5364   2683016.2691  -3667014.4740   5   7   8.7797   6.1956   8.5890  -5.2310  -5.7457   6.3098   0.00    0.0
2017/02/04 04:30:00.000  -4467079.5503   2683013.5032  -3667011.9878   5   6  11.8564   9.3366   8.2126  -8.4808  -6.9198   7.6314   0.00    0.0
2017/02/04 04:40:00.000  -4467081.4841   2683015.0099  -3667013.1281   5   7   7.2358   7.9679   7.2106  -5.5892  -5.5859   5.7060   0.00    0.0
2017/02/04 04:40:30.000  -4467082.1773   2683016.0220  -3667013.6742   5   7   7.2465   7.9468   7.1778  -5.5817  -5.5555   5.6914   0.00    0.0
2017/02/04 04:41:00.000  -4467082.4365   2683015.8809  -3667012.8788   5   7   7.2571   7.9257   7.1450  -5.5741  -5.5250   5.6767   0.00    0.0
2017/02/04 04:41:30.000  -4467081.5528   2683014.8218  -3667013.0009   5   7   7.2677   7.9045   7.1123  -5.5664  -5.4945   5.6619   0.00    0.0
2017/02/04 04:42:00.000  -4467083.2378   2683017.3156  -3667015.8663   5   8   7.0124   6.4276   5.5649  -4.6906  -3.1430   4.8331   0.00    0.0
2017/02/04 04:42:30.000  -4467082.0378   2683017.1077  -3667015.8768   5   8   7.0331   6.4276   5.5637  -4.7061  -3.1526   4.8418   0.00    0.0
2017/02/04 04:43:00.000  -4467081.3630   2683017.1338  -3667014.9532   5   8   7.0535   6.4277   5.5623  -4.7214  -3.1619   4.8503   0.00    0.0
2017/02/04 04:43:30.000  -4467083.4933   2683017.9355  -3667015.5427   5   8   7.0738   6.4277   5.5608  -4.7364  -3.1709   4.8584   0.00    0.0
2017/02/04 04:44:00.000  -4467082.8234   2683017.8916  -3667015.8205   5   8   7.0939   6.4276   5.5590  -4.7513  -3.1796   4.8663   0.00    0.0
2017/02/04 04:44:30.000  -4467082.1382   2683016.7328  -3667014.9516   5   8   7.1138   6.4275   5.5570  -4.7660  -3.1881   4.8740   0.00    0.0
2017/02/04 04:45:00.000  -4467081.9636   2683016.6006  -3667015.1175   5   8   7.1335   6.4273   5.5549  -4.7805  -3.1963   4.8813   0.00    0.0
2017/02/04 04:45:30.000  -4467081.9448   2683016.7703  -3667015.4855   5   8   7.1530   6.4271   5.5525  -4.7948  -3.2042   4.8883   0.00    0.0
2017/02/04 04:46:00.000  -4467080.6776   2683017.2071  -3667015.1820   5   8   7.1723   6.4268   5.5499  -4.8088  -3.2118   4.8950   0.00    0.0
2017/02/04 04:46:30.000  -4467081.2523   2683017.3822  -3667014.5658   5   8   7.1913   6.4265   5.5472  -4.8226  -3.2191   4.9014   0.00    0.0
2017/02/04 04:47:00.000  -4467081.4508   2683016.1599  -3667014.6869   5   8   7.2101   6.4261   5.5442  -4.8362  -3.2262   4.9075   0.00    0.0
2017/02/04 04:47:30.000  -4467081.9545   2683016.4599  -3667015.1048   5   9   7.0236   6.3409   4.8563  -5.0294  -3.6368   4.4248   0.00    0.0
2017/02/04 04:48:00.000  -4467081.9653   2683016.0881  -3667014.7957   5   9   7.0470   6.3381   4.8625  -5.0423  -3.6447   4.4400   0.00    0.0
2017/02/04 04:48:30.000  -4467082.0990   2683016.6937  -3667015.4240   5   9   7.0701   6.3352   4.8685  -5.0550  -3.6523   4.4549   0.00    0.0
2017/02/04 04:49:00.000  -4467081.7948   2683016.9037  -3667014.8562   5   9   7.0930   6.3321   4.8744  -5.0673  -3.6597   4.4695   0.00    0.0
2017/02/04 04:49:30.000  -4467081.8945   2683016.8828  -3667015.9606   5   9   7.1156   6.3288   4.8802  -5.0792  -3.6667   4.4838   0.00    0.0
2017/02/04 04:50:00.000  -4467082.1335   2683016.8793  -3667015.9908   5   9   7.1380   6.3254   4.8858  -5.0909  -3.6735   4.4978   0.00    0.0
2017/02/04 04:50:30.000  -4467081.8235   2683016.4696  -3667015.1127   5   9   7.1601   6.3218   4.8912  -5.1022  -3.6799   4.5115   0.00    0.0
2017/02/04 04:51:00.000  -4467081.6930   2683016.3510  -3667014.7795   5   9   7.1820   6.3180   4.8964  -5.1131  -3.6860   4.5248   0.00    0.0
2017/02/04 04:51:30.000  -4467081.8944   2683016.8932  -3667015.3321   5   9   7.2035   6.3140   4.9014  -5.1237  -3.6918   4.5378   0.00    0.0
2017/02/04 04:52:00.000  -4467081.5094   2683016.1019  -3667015.8036   5   8   7.2762   6.4755   5.6106  -5.2550  -4.1989   4.8019   0.00    0.0
2017/02/04 04:52:30.000  -4467082.0759   2683016.1906  -3667015.6195   5   8   7.3025   6.4778   5.6314  -5.2733  -4.2189   4.8295   0.00    0.0
2017/02/04 04:53:00.000  -4467081.7673   2683016.7405  -3667015.7952   5   8   7.3287   6.4801   5.6522  -5.2915  -4.2387   4.8571   0.00    0.0
2017/02/04 04:53:30.000  -4467081.5309   2683015.7301  -3667014.0918   5   8   7.3549   6.4823   5.6731  -5.3096  -4.2584   4.8846   0.00    0.0
2017/02/04 04:54:00.000  -4467081.6315   2683016.3149  -3667015.0164   5   8   7.3810   6.4844   5.6940  -5.3275  -4.2780   4.9121   0.00    0.0
2017/02/04 04:54:30.000  -4467081.4116   2683016.3668  -3667014.1106   5   8   7.4070   6.4865   5.7149  -5.3453  -4.2975   4.9395   0.00    0.0
2017/02/04 04:55:00.000  -4467080.0882   2683016.0022  -3667015.0547   5   8   7.4330   6.4885   5.7359  -5.3629  -4.3168   4.9669   0.00    0.0
2017/02/04 04:55:30.000  -4467081.7062   2683017.1912  -3667015.2276   5   9   7.2234   5.0339   5.3256  -4.6186  -3.1377   4.5691   0.00    0.0
2017/02/04 04:56:00.000  -4467081.4560   2683016.4226  -3667015.4156   5   9   7.2471   5.0371   5.3452  -4.6337  -3.1594   4.5944   0.00    0.0
2017/02/04 04:56:30.000  -4467081.3296   2683017.0618  -3667014.9337   5   9   7.2706   5.0404   5.3648  -4.6488  -3.1810   4.6197   0.00    0.0
2017/02/04 04:57:00.000  -4467080.7233   2683015.2832  -3667013.9380   5   9   7.2941   5.0436   5.3844  -4.6638  -3.2025   4.6449   0.00    0.0
2017/02/04 04:57:30.000  -4467081.9006   2683015.9632  -3667014.9441   5   9   7.3175   5.0469   5.4042  -4.6787  -3.2240   4.6701   0.00    0.0
2017/02/04 04:58:00.000  -4467080.8297   2683015.7761  -3667014.4300   5   9   7.3408   5.0501   5.4239  -4.6935  -3.2453   4.6952   0.00    0.0
2017/02/04 04:58:30.000  -4467081.4548   2683016.5211  -3667014.6979   5   9   7.3640   5.0533   5.4437  -4.7082  -3.2665   4.7202   0.00    0.0
2017/02/04 04:59:00.000  -4467081.1753   2683016.3130  -3667013.6460   5   9   7.3871   5.0565   5.4635  -4.7228  -3.2876   4.7452   0.00    0.0
2017/02/04 04:59:30.000  -4467080.3128   2683015.8364  -3667013.6433   5   9   7.4101   5.0597   5.4834  -4.7372  -3.3086   4.7700   0.00    0.0
2017/02/04 05:00:00.000  -4467081.1380   2683016.1630  -3667014.1679   5   9   7.4330   5.0629   5.5032  -4.7515  -3.3295   4.7948   0.00    0.0
2017/02/04 05:00:30.000  -4467082.3039   2683017.6016  -3667015.2714   5   9   7.4557   5.0660   5.5231  -4.7657  -3.3502   4.8194   0.00    0.0
2017/02/04 05:01:00.000  -4467081.9678   2683016.9662  -3667015.1346   5   9   7.4783   5.0691   5.5430  -4.7797  -3.3708   4.8439   0.00    0.0
2017/02/04 05:01:30.000  -4467081.0304   2683015.9410  -3667014.5761   5   9   7.5007   5.0721   5.5629  -4.7936  -3.3912   4.8683   0.00    0.0
2017/02/04 05:02:00.000  -4467081.1259   2683016.5117  -3667014.9036   5   9   7.5230   5.0751   5.5828  -4.8073  -3.4115   4.8925   0.00    0.0
2017/02/04 05:02:30.000  -4467081.4163   2683017.0385  -3667014.8756   5   9   7.5451   5.0781   5.6026  -4.8208  -3.4316   4.9166   0.00    0.0
2017/02/04 05:03:00.000  -4467082.2895   2683017.4784  -3667015.2645   5   9   7.5670   5.0810   5.6225  -4.8342  -3.4515   4.9406   0.00    0.0
2017/02/04 05:03:30.000  -4467081.4976   2683016.4322  -3667013.8996   5   9   7.5887   5.0839   5.6423  -4.8474  -3.4713   4.9643   0.00    0.0
2017/02/04 05:04:00.000  -4467080.0669   2683015.7248  -3667013.5652   5   9   7.6103   5.0866   5.6620  -4.8603  -3.4909   4.9879   0.00    0.0
2017/02/04 05:04:30.000  -4467081.0548   2683016.5907  -3667014.1361   5   9   7.6315   5.0894   5.6818  -4.8731  -3.5103   5.0112   0.00    0.0
2017/02/04 05:05:00.000  -4467081.0088   2683016.1111  -3667014.6126   5   9   7.6526   5.0920   5.7014  -4.8856  -3.5295   5.0344   0.00    0.0
2017/02/04 05:05:30.000  -4467080.6217   2683015.9491  -3667014.6960   5   9   7.6734   5.0946   5.7210  -4.8980  -3.5485   5.0573   0.00    0.0
2017/02/04 05:06:00.000  -4467080.8938   2683016.2493  -3667014.6420   5   9   7.6940   5.0970   5.7406  -4.9101  -3.5673   5.0801   0.00    0.0
2017/02/04 05:06:30.000  -4467080.6276   2683016.4439  -3667013.5266   5   9   7.7143   5.0994   5.7600  -4.9219  -3.5859   5.1025   0.00    0.0
2017/02/04 05:07:00.000  -4467080.4100   2683015.5317  -3667013.2456   5   9   7.7344   5.1017   5.7794  -4.9335  -3.6043   5.1247   0.00    0.0
2017/02/04 05:07:30.000  -4467080.9581   2683016.1610  -3667013.8581   5   9   7.7542   5.1039   5.7986  -4.9449  -3.6224   5.1467   0.00    0.0
2017/02/04 05:08:00.000  -4467080.0568   2683015.7098  -3667013.5393   5   9   7.7736   5.1060   5.8177  -4.9560  -3.6403   5.1683   0.00    0.0
2017/02/04 05:08:30.000  -4467080.2890   2683015.9952  -3667013.7176   5   9   7.7928   5.1080   5.8368  -4.9668  -3.6579   5.1897   0.00    0.0
2017/02/04 05:09:00.000  -4467080.5628   2683015.8157  -3667013.2331   5   9   7.8117   5.1099   5.8557  -4.9773  -3.6753   5.2108   0.00    0.0
2017/02/04 05:09:30.000  -4467081.1319   2683016.7587  -3667013.7783   5   9   7.8302   5.1117   5.8744  -4.9875  -3.6924   5.2315   0.00    0.0
2017/02/04 05:10:00.000  -4467080.3973   2683016.1155  -3667013.8302   5   9   7.8484   5.1133   5.8930  -4.9975  -3.7092   5.2520   0.00    0.0
2017/02/04 05:10:30.000  -4467081.2575   2683015.9352  -3667013.2188   5   9   7.8662   5.1148   5.9115  -5.0071  -3.7258   5.2720   0.00    0.0
2017/02/04 05:11:00.000  -4467079.5201   2683015.9770  -3667013.3105   5   9   7.8837   5.1162   5.9298  -5.0164  -3.7421   5.2918   0.00    0.0
2017/02/04 05:11:30.000  -4467079.2268   2683015.1931  -3667013.6115   5   9   7.9008   5.1175   5.9479  -5.0253  -3.7581   5.3111   0.00    0.0
2017/02/04 05:12:00.000  -4467080.3774   2683015.5066  -3667013.4529   5   9   7.9176   5.1186   5.9658  -5.0340  -3.7738   5.3301   0.00    0.0
2017/02/04 05:12:30.000  -4467080.6941   2683016.1393  -3667013.6456   5   9   7.9339   5.1195   5.9835  -5.0423  -3.7892   5.3487   0.00    0.0
