     2.11           OBSERVATION DATA    G (GPS)             RINEX VERSION / TYPE
teqc  2016Apr1      gpsops              20170205 00:16:18UTCPGM / RUN BY / DATE
Linux 2.4.21-27.ELsmp|Opteron|gcc -static|Linux x86_64|=+   COMMENT
BIT 2 OF LLI FLAGS DATA COLLECTED UNDER A/S CONDITION       COMMENT
TIDB                                                        MARKER NAME
50103M108                                                   MARKER NUMBER
GGN                 JPL                                     OBSERVER / AGENCY
UC2200524011        ASHTECH UZ-12       CQ00                REC # / TYPE / VERS
402                 AOAD/M_T        NONE                    ANT # / TYPE
 -4460996.4047  2682557.0885 -3674443.3930                  APPROX POSITION XYZ
        0.0614        0.0000        0.0000                  ANTENNA: DELTA H/E/N
     1     1                                                WAVELENGTH FACT L1/2
     7    L1    L2    P1    P2    C1    S1    S2            # / TYPES OF OBSERV
    30.0000                                                 INTERVAL
                                                            COMMENT
This data is provided as a public service by NASA/JPL.      COMMENT
No warranty is expressed or implied regarding suitability   COMMENT
for use.  For further information, contact:                 COMMENT
Dave Stowers, NASA/JPL m/s 238-600                          COMMENT
4800 Oak Grove Drive, Pasadena CA 91109 USA                 COMMENT
                                                            COMMENT
Forced Modulo Decimation to 30 seconds                      COMMENT
 SNR is mapped to RINEX snr flag value [0-9]                COMMENT
  L1 & L2: min(max(int(snr_dBHz/6), 0), 9)                  COMMENT
pseudorange smoothing corrections not applied               COMMENT
  2017     2     4     0     0    0.0000000     GPS         TIME OF FIRST OBS
                                                            END OF HEADER
 17  2  4  0  0  0.0000000  0  8G06G15G19G24G12G17G28G02
 -21004158.79949 -16350825.57348  20675595.2884   20675601.4574   20675594.601
        57.0004         52.0004
  -1633006.92646  -1258392.40345  24870320.3914   24870324.1404   24870320.196
        39.0004         34.0004
 -18270780.40449 -14179714.73048  21396125.6364   21396127.8284   21396126.729
        55.0004         50.0004
 -19233983.09549 -14944780.59548  21236781.9704   21236787.0884   21236781.169
        55.0004         50.0004
 -11020631.70148  -8579794.70147  22941725.9254   22941728.6284   22941725.374
        50.0004         45.0004
 -15078826.47348 -11740466.48947  22069697.0864   22069700.4724   22069696.781
        52.0004         47.0004
  -3871178.34747  -2957865.50146  24300215.8914   24300221.5824   24300216.907
        42.0004         38.0004
 -16200696.49448 -12562788.71747  21753017.5844   21753019.8734   21753018.335
        52.0004         47.0004
 17  2  4  0  0 30.0000000  0  8G06G15G19G24G12G17G28G02
 -21028453.49249 -16369756.49848  20670972.2364   20670978.0794   20670971.686
        57.0004         52.0004
  -1563364.03246  -1204125.23045  24883572.9924   24883580.6774   24883573.250
        40.0004         35.0004
 -18223349.01449 -14142755.22548  21405151.5404   21405153.6654   21405152.593
        55.0004         50.0004
 -19268617.81449 -14971768.68748  21230190.8884   21230196.3514   21230190.399
        55.0004         50.0004
 -11095807.73048  -8638373.42347  22927419.6484   22927423.5574   22927420.734
        50.0004         45.0004
 -14997123.48048 -11676801.85547  22085244.4674   22085247.8604   22085244.238
        52.0004         47.0004
  -3781514.10647  -2887997.34046  24317278.6374   24317284.6904   24317279.717
        43.0004         39.0004
 -16302479.03948 -12642099.76747  21733649.4384   21733651.0734   21733649.356
        52.0004         47.0004
 17  2  4  0  1  0.0000000  0  8G06G15G19G24G12G17G28G02
 -21052159.05249 -16388228.35448  20666461.0824   20666467.2094   20666460.194
        57.0004         52.0004
  -1493694.24246  -1149837.19545  24896830.4084   24896836.7914   24896832.078
        39.0004         34.0004
 -18175706.86249 -14105631.48448  21414217.5254   21414219.5834   21414218.351
        55.0004         50.0004
 -19302695.88549 -14998323.02648  21223705.9844   21223711.6764   21223705.568
        55.0004         50.0004
 -11170960.48948  -8696934.00247  22913118.9964   22913121.9704   22913118.969
        50.0004         45.0004
 -14915279.98948 -11613027.73947  22100818.9094   22100821.7344   22100818.674
        52.0004         47.0004
  -3691737.61747  -2818041.70446  24334361.6094   24334367.8294   24334362.931
        42.0004         37.0004
 -16403935.95148 -12721157.08248  21714342.3844   21714345.0194   21714343.224
        52.0004         48.0004
 17  2  4  0  1 30.0000000  0  8G06G15G19G24G12G17G28G02
 -21075274.60149 -16406240.46748  20662062.1854   20662068.1504   20662061.660
        57.0004         52.0004
  -1424000.25246  -1095530.24045  24910094.3614   24910101.4124   24910093.201
        39.0004         35.0004
 -18127855.03649 -14068344.36048  21423323.5244   21423325.4334   21423324.417
        55.0004         50.0004
 -19336215.57649 -15024442.26748  21217327.4234   21217333.0374   21217326.947
        55.0004         50.0004
 -11246088.81748  -8755475.54947  22898822.2004   22898825.5934   22898822.000
        50.0004         45.0004
 -14833297.82648 -11549145.57447  22116419.7134   22116422.9694   22116419.284
        52.0004         47.0004
  -3601849.31846  -2747999.02346  24351467.5864   24351472.5054   24351467.628
        41.0004         37.0004
 -16505064.03648 -12799958.17148  21695098.2094   21695100.3354   21695098.686
        52.0004         48.0004
 17  2  4  0  2  0.0000000  0  8G06G15G19G24G12G17G28G02
 -21097799.49649 -16423792.33048  20657775.9924   20657781.9164   20657775.248
        57.0004         52.0004
  -1354284.68446  -1041206.49645  24923359.4614   24923365.6274   24923360.486
        40.0004         35.0004
 -18079795.30049 -14030895.23448  21432468.8404   21432471.1464   21432469.858
        55.0004         50.0004
 -19369175.65449 -15050125.44748  21211055.3804   21211060.7614   21211054.971
        55.0004         51.0004
 -11321192.20048  -8813997.65047  22884531.1134   22884534.1664   22884530.141
        50.0004         45.0004
 -14751178.83148 -11485156.78247  22132046.3104   22132049.9234   22132046.425
        52.0004         47.0004
  -3511849.36147  -2677869.25846  24368594.9254   24368600.6714   24368595.072
        42.0004         38.0004
 -16605860.58748 -12878500.92248  21675917.6184   21675919.3114   21675917.917
        52.0004         48.0004
 17  2  4  0  2 30.0000000  0  8G06G15G19G24G12G17G28G02
 -21119733.06849 -16440883.41548  20653602.1514   20653608.0874   20653601.561
        57.0004         52.0004
  -1284550.72856   -986868.44455  24936631.9765   24936637.0695   24936629.224
        40.0004         35.0004
 -18031529.50549 -13993285.53948  21441653.8014   21441655.8204   21441654.488
        55.0004         50.0004
 -19401574.83649 -15075371.56248  21204890.1704   21204895.6344   21204889.644
        55.0004         51.0004
 -11396269.75848  -8872499.64047  22870244.7124   22870247.2934   22870243.687
        50.0004         45.0004
 -14668925.07048 -11421062.97847  22147698.9224   22147702.3794   22147698.217
        52.0004         47.0004
  -3421738.45247  -2607653.06746  24385743.1664   24385748.8784   24385743.408
        43.0004         39.0004
 -16706322.79448 -12956783.14648  21656800.0094   21656801.9634   21656800.796
        52.0004         48.0004
 17  2  4  0  3  0.0000000  0  8G06G15G19G24G12G17G28G02
 -21141074.50849 -16457513.10648  20649541.0244   20649546.9494   20649540.546
        57.0004         52.0004
  -1214800.95246   -932518.03945  24949902.6624   24949905.3674   24949902.406
        39.0004         34.0004
 -17983058.62949 -13955516.04348  21450877.4104   21450879.2944   21450878.280
        55.0004         50.0004
 -19433411.63349 -15100179.45948  21198831.6754   21198837.1104   21198831.488
        55.0004         51.0004
 -11471320.38148  -8930980.63647  22855963.1454   22855965.1704   22855962.136
        50.0004         45.0004
 -14586538.21348 -11356865.46347  22163376.2054   22163379.8464   22163375.963
        52.0004         47.0004
  -3331516.50646  -2537350.42546  24402912.6484   24402915.9454   24402912.466
        41.0004         36.0004
 -16806447.28048 -13034802.21148  21637746.8584   21637748.9584   21637747.598
        53.0004         48.0004
 17  2  4  0  3 30.0000000  0  8G06G15G19G24G12G17G28G02
 -21161823.29749 -16473680.99048  20645592.6314   20645598.7094   20645591.893
        57.0004         52.0004
  -1145038.33846   -878157.60545  24963180.7144   24963184.5724   24963179.415
        40.0004         35.0004
 -17934384.70949 -13917588.32948  21460139.6864   21460141.8134   21460140.595
        55.0004         50.0004
 -19464684.88549 -15124548.22748  21192880.6684   21192886.3464   21192880.124
        55.0004         51.0004
 -11546343.30648  -8989440.04847  22841686.4674   22841689.0454   22841685.179
        50.0004         45.0004
 -14504019.92548 -11292565.53847  22179079.2134   22179082.3184   22179078.744
        52.0004         47.0004
  -3241184.36046  -2466961.69046  24420100.4094   24420105.1184   24420101.449
        41.0004         37.0004
 -16906231.48448 -13112556.11948  21618758.8284   21618761.0394   21618759.377
        53.0004         48.0004
 17  2  4  0  4  0.0000000  0  8G06G15G19G24G12G17G28G02
 -21181978.66049 -16489386.46648  20641757.2984   20641763.1224   20641756.701
        57.0004         52.0004
  -1075265.66946   -823789.44346  24976455.7554   24976462.8794   24976455.458
        40.0004         36.0004
 -17885508.91549 -13879503.31148  21469440.6924   21469442.6614   21469441.376
        55.0004         50.0004
 -19495392.79549 -15148476.47248  21187037.1304   21187042.5454   21187036.771
        55.0004         51.0004
 -11621337.47848  -9047877.04947  22827414.6864   22827417.7814   22827414.727
        50.0004         45.0004
 -14421372.01548 -11228164.60547  22194806.5294   22194810.1664   22194806.567
        52.0004         47.0004
  -3150742.33547  -2396487.41546  24437312.0154   24437317.0894   24437312.866
        42.0004         38.0004
 -17005672.34048 -13190042.48948  21599835.7364   21599837.6024   21599836.605
        53.0004         48.0004
 17  2  4  0  4 30.0000000  0  8G06G15G19G24G12G17G28G02
 -21201540.18549 -16504629.20748  20638034.7594   20638040.7514   20638034.168
        57.0004         52.0004
  -1005486.07346   -769415.80046  24989736.8094   24989740.5664   24989735.908
        41.0004         37.0004
 -17836432.99849 -13841262.35548  21478779.3094   21478781.8404   21478780.086
        55.0004         50.0004
 -19525534.49749 -15171963.51748  21181301.5394   21181306.5934   21181300.884
        55.0004         51.0004
 -11696301.85648  -9106290.83847  22813150.5154   22813153.4264   22813149.126
        50.0004         45.0004
 -14338596.13548 -11163663.95547  22210558.3424   22210561.7694   22210558.050
        52.0004         47.0004
  -3060190.83847  -2325927.92146  24454542.9294   24454548.6864   24454543.025
        42.0004         37.0004
 -17104766.86348 -13267258.97448  21580978.7634   21580980.7534   21580979.458
        53.0004         48.0004
 17  2  4  0  5  0.0000000  0  7G06G15G19G24G12G17G02
 -21220507.18549 -16519408.68648  20634425.3984   20634431.4714   20634424.956
        57.0004         52.0004
   -935702.15946   -715038.76546  25003015.0594   25003017.9314   25003014.354
        41.0004         36.0004
 -17787158.31549 -13802866.51348  21488155.8594   21488158.2454   21488156.750
        55.0004         50.0004
 -19555109.01549 -15195008.60048  21175673.3204   21175679.0264   21175673.065
        55.0004         51.0004
 -11771236.00448  -9164681.07347  22798889.8714   22798893.1844   22798889.849
        50.0004         45.0004
 -14255694.29148 -11099065.15347  22226333.7344   22226337.1904   22226333.725
        51.0004         47.0004
 -17203512.39148 -13344203.51748  21562188.0204   21562190.1794   21562188.589
        53.0004         48.0004
 17  2  4  0  5 30.0000000  0  8G06G15G19G24G12G17G28G02
 -21238879.12449 -16533724.48048  20630929.5364   20630935.3164   20630928.896
        57.0004         52.0004
   -865916.56746   -660660.50546  25016294.5664   25016299.0444   25016294.659
        41.0004         36.0004
 -17737686.38449 -13764316.97648  21497570.2134   21497572.5234   21497571.110
        55.0004         50.0004
 -19584114.31349 -15217610.14248  21170154.0834   21170159.4804   21170153.607
        55.0004         51.0004
 -11846138.37548  -9223046.54147  22784636.9734   22784639.2864   22784636.342
        50.0004         45.0004
 -14172667.84548 -11034369.25947  22242133.6374   22242137.0724   22242133.063
        51.0004         47.0004
     87687.64149     53045.13246  24489068.4444   24489075.3054   24489069.449
        54.0004         38.0004
 -17301905.99148 -13420873.83948  21543464.3124   21543466.0194   21543464.906
        53.0004         48.0004
 17  2  4  0  6  0.0000000  0  8G06G15G19G24G12G17G28G02
 -21256655.52449 -16547576.21848  20627546.7714   20627552.6534   20627546.134
        57.0004         52.0004
   -796132.19946   -606283.17746  25029575.1994   25029580.2674   25029575.365
        41.0004         37.0004
 -17688018.92149 -13725615.07348  21507021.8774   21507023.9324   21507022.587
        55.0004         50.0004
 -19612549.58849 -15239767.50548  21164742.8704   21164748.3134   21164742.465
        55.0004         51.0004
 -11921008.24148  -9281386.68147  22770389.5024   22770392.2774   22770388.966
        50.0004         45.0004
 -14089518.84848 -10969577.87547  22257956.3864   22257959.6344   22257955.961
        51.0004         47.0004
    178565.42448    123858.91346  24506362.2524   24506367.9704   24506362.606
        48.0004         37.0004
 -17399944.51648 -13497267.47448  21524808.4064   21524809.9954   21524808.966
        53.0004         48.0004
 17  2  4  0  6 30.0000000  0  8G06G15G19G24G12G17G28G02
 -21273835.86749 -16560963.49248  20624277.5484   20624283.3784   20624276.612
        57.0004         52.0004
   -726351.86947   -551908.99746  25042852.5194   25042858.6524   25042852.936
        42.0004         37.0004
 -17638157.27249 -13686761.85748  21516510.0894   21516512.2984   21516510.788
        55.0004         50.0004
 -19640413.38649 -15261479.56048  21159440.7854   21159446.0734   21159440.274
        55.0004         51.0004
 -11995844.58848  -9339700.70747  22756149.2804   22756150.7864   22756148.108
        50.0004         45.0004
 -14006248.79348 -10904692.15047  22273802.1014   22273805.4754   22273801.928
        51.0004         47.0004
    269551.13847    194756.79246  24523675.7454   24523681.1734   24523676.048
        44.0004         37.0004
 -17497625.12148 -13573382.21148  21506220.5524   21506222.0604   21506220.697
        53.0004         48.0004
 17  2  4  0  7  0.0000000  0  8G06G15G19G24G12G17G28G02
 -21290419.67049 -16573885.93248  20621121.6824   20621127.4774   20621120.990
        57.0004         52.0004
   -656578.31246   -497540.05946  25056128.8304   25056135.3384   25056129.364
        41.0004         37.0004
 -17588103.06249 -13647758.58948  21526035.0404   21526037.4304   21526036.069
        55.0004         50.0004
 -19667704.65549 -15282745.48948  21154247.2804   21154252.6344   21154246.799
        55.0004         51.0004
 -12070646.45948  -9397987.86947  22741914.6364   22741916.5234   22741914.189
        50.0004         45.0004
 -13922859.43748 -10839713.46747  22289670.3564   22289673.6234   22289670.152
        51.0004         46.0004
    360644.16947    265738.24946  24541010.4784   24541016.7734   24541010.518
        42.0004         37.0004
 -17594944.98748 -13649215.85648  21487700.8254   21487702.6614   21487701.643
        53.0004         48.0004
 17  2  4  0  7 30.0000000  0  8G06G15G19G24G12G17G28G02
 -21306406.49649 -16586343.19448  20618079.4374   20618085.4444   20618078.686
        57.0004         52.0004
   -586814.70646   -443178.90146  25069404.8064   25069411.1464   25069405.539
        41.0004         37.0004
 -17537857.81549 -13608606.46748  21535596.7764   21535598.6654   21535597.331
        55.0004         50.0004
 -19694421.94049 -15303564.16048  21149163.0254   21149168.4354   21149162.617
        55.0004         51.0004
 -12145412.70348  -9456247.26247  22727686.1954   22727689.9124   22727686.540
        50.0004         45.0004
 -13839352.58248 -10774643.23047  22305561.5834   22305564.5364   22305560.954
        51.0004         46.0004
    451844.31346    336803.19046  24558365.8974   24558373.9354   24558366.069
        41.0004         36.0004
 -17691901.18148 -13724766.11848  21469250.7424   21469252.7134   21469251.175
        53.0004         48.0004
 17  2  4  0  8  0.0000000  0  8G06G15G19G24G12G17G28G02
 -21321795.96149 -16598334.98048  20615150.9454   20615156.8794   20615150.123
        57.0004         52.0004
   -517063.54547   -388827.44146  25082677.7694   25082684.5164   25082677.084
        42.0004         38.0004
 -17487423.37549 -13569306.92048  21545193.5844   21545195.9584   21545194.432
        55.0004         50.0004
 -19720565.00849 -15323935.38548  21144188.1974   21144193.8844   21144187.835
        55.0004         51.0004
 -12220142.77748  -9514478.48547  22713465.2154   22713469.6004   22713465.961
        50.0004         45.0004
 -13755730.09648 -10709482.88447  22321474.4854   22321477.5014   22321473.829
        51.0004         46.0004
    543150.90546    407951.08045  24575737.9414   24575746.1694   24575740.632
        40.0004         34.0004
 -17788490.90648 -13800030.81348  21450870.2914   21450871.9994   21450870.697
        53.0004         48.0004
 17  2  4  0  8 30.0000000  0  8G06G15G19G24G12G17G28G02
 -21336587.60349 -16609860.93148  20612336.2144   20612342.0344   20612335.454
        57.0004         52.0004
   -447327.55446   -334487.83946  25095949.4444   25095955.3614   25095949.933
        41.0004         36.0004
 -17436800.56549 -13529860.58548  21554827.1834   21554829.2304   21554827.970
        55.0004         50.0004
 -19746131.78949 -15343857.55948  21139323.2154   21139328.7104   21139322.754
        55.0004         51.0004
 -12294835.21848  -9572680.37147  22699252.3934   22699255.6144   22699252.071
        50.0004         45.0004
 -13671993.41648 -10644233.55847  22337408.9414   22337412.2224   22337408.742
        51.0004         46.0004
                    479182.06445                  24593144.5094   24593136.639
                        33.0004
 -17884711.18948 -13875007.64148  21432560.5434   21432562.0294   21432560.483
        53.0004         48.0004
 17  2  4  0  9  0.0000000  0  7G06G15G19G24G12G17G02
 -21350781.07949 -16620920.77648  20609635.2614   20609641.3254   20609634.683
        57.0004         52.0004
   -377609.55246   -280162.15446  25109215.7644   25109221.6844   25109216.024
        41.0004         36.0004
 -17385990.98249 -13490268.71948  21564495.7974   21564498.0744   21564496.625
        55.0004         50.0004
 -19771121.11649 -15363329.77148  21134567.7154   21134573.2754   21134567.127
        55.0004         51.0004
 -12369488.99348  -9630852.13447  22685046.2584   22685049.6204   22685045.721
        50.0004         46.0004
 -13588144.10748 -10578896.48147  22353364.6984   22353368.6414   22353364.467
        51.0004         46.0004
 -17980559.41348 -13949694.55548  21414321.1724   21414322.9204   21414321.480
        53.0004         48.0004
 17  2  4  0  9 30.0000000  0  7G06G15G19G24G12G17G02
 -21364376.16849 -16631514.34748  20607048.0684   20607054.2144   20607047.345
        57.0004         52.0004
   -307912.24246   -225852.69546  25122477.7934   25122483.6664   25122478.804
        40.0004         36.0004
 -17334996.03349 -13450532.41348  21574199.7844   21574202.2424   21574200.380
        55.0004         50.0004
 -19795532.55249 -15382351.67548  21129922.3404   21129928.2544   21129921.859
        55.0004         51.0004
 -12444103.23848  -9688993.08847  22670848.0064   22670850.6344   22670848.006
        50.0004         46.0004
 -13504183.97148 -10513473.02647  22369342.4504   22369345.2564   22369341.299
        50.0004         46.0004
 -18076032.62448 -14024089.24448  21396153.0184   21396154.6124   21396153.375
        53.0004         48.0004
 17  2  4  0 10  0.0000000  0  6G06G19G24G12G17G02
 -21377372.39649 -16641641.27048  20604574.9234   20604580.9984   20604574.550
        57.0004         52.0004
 -17283817.10049 -13410652.73748  21583938.7574   21583940.9644   21583939.888
        55.0004         50.0004
 -19819364.77349 -15400922.24448  21125387.3724   21125392.7974   21125387.043
        55.0004         51.0004
 -12518676.31648  -9747101.96647  22656656.5004   22656659.5794   22656656.509
        50.0004         46.0004
 -13420114.33248 -10447964.25447  22385340.2154   22385343.5494   22385339.587
        50.0004         46.0004
 -18171127.89748 -14098189.43748  21378057.0294   21378058.5964   21378057.444
        53.0004         48.0004
 17  2  4  0 10 30.0000000  0  7G06G15G19G24G12G17G02
 -21389769.64249 -16651301.45948  20602215.9384   20602221.8794   20602215.158
        57.0004         52.0004
   -168591.04246   -117290.89546  25148993.5514   25148997.4334   25148992.905
        40.0004         36.0004
 -17232456.29049 -13370631.34548  21593712.6594   21593714.7544   21593713.497
        55.0004         50.0004
 -19842617.16449 -15419040.99748  21120962.6734   21120968.0744   21120962.069
        55.0004         51.0004
 -12593208.22448  -9805178.76147  22642474.5974   22642476.8034   22642473.408
        50.0004         46.0004
 -13335937.24048 -10382371.74647  22401358.3704   22401361.4394   22401358.029
        50.0004         46.0004
 -18265842.44748 -14171992.96348  21360033.3144   21360034.9574   21360033.829
        53.0004         49.0004
 17  2  4  0 11  0.0000000  0  7G06G15G19G24G12G17G02
 -21401567.54149 -16660494.62148  20599970.7344   20599976.8024   20599969.996
        57.0004         52.0004
    -98972.52246    -63042.81346  25162240.1174   25162245.8644   25162238.317
        41.0004         36.0004
 -17180915.02649 -13330469.34048  21603520.4664   21603522.6054   21603521.146
        55.0004         50.0004
 -19865288.03849 -15436706.62248  21116648.4374   21116654.0724   21116648.029
        55.0004         51.0004
 -12667697.40348  -9863222.26747  22628298.9014   22628302.4164   22628298.823
        50.0004         46.0004
 -13251653.84648 -10316696.41247  22417397.2594   22417399.6604   22417397.118
        50.0004         46.0004
 -18360173.42148 -14245497.60348  21342082.7294   21342084.4204   21342083.119
        53.0004         49.0004
 17  2  4  0 11 30.0000000  0  6G06G19G24G12G17G02
 -21412765.82249 -16669220.54848  20597839.7984   20597845.8884   20597839.236
        57.0004         52.0004
 -17129194.33449 -13290167.51948  21613362.6684   21613364.8504   21613363.217
        55.0004         50.0004
 -19887376.94449 -15453918.76548  21112445.2274   21112450.7514   21112444.731
        55.0004         51.0004
 -12742142.99148  -9921231.80547  22614133.1214   22614135.3304   22614132.763
        51.0004         46.0004
 -13167266.35348 -10250939.96447  22433455.9654   22433458.2124   22433455.019
        50.0004         46.0004
 -18454117.90148 -14318701.07548  21324205.6334   21324207.4754   21324206.082
        53.0004         49.0004
 17  2  4  0 12  0.0000000  0  6G06G19G24G12G17G02
 -21423364.38849 -16677479.16448  20595823.0934   20595829.0134   20595822.509
        57.0004         52.0004
 -17077296.25049 -13249727.47048  21623238.4754   21623240.9324   21623239.196
        55.0004         50.0004
 -19908882.56749 -15470676.40448  21108352.7724   21108358.1874   21108352.020
        55.0004         51.0004
 -12816543.70648  -9979206.37447  22599974.8404   22599977.6664   22599974.937
        51.0004         46.0004
 -13082776.20348 -10185103.51747  22449533.1524   22449536.6534   22449533.082
        50.0004         46.0004
 -18547673.24248 -14391601.31948  21306402.6614   21306404.2194   21306403.077
        53.0004         49.0004
 17  2  4  0 12 30.0000000  0  6G06G19G24G12G17G02
 -21433362.98449 -16685270.27248  20593920.3664   20593926.2774   20593919.725
        57.0004         52.0004
 -17025221.73049 -13209149.94248  21633148.2104   21633150.3694   21633148.858
        55.0004         50.0004
 -19929803.84649 -15486978.70848  21104371.8334   21104377.1884   21104371.293
        55.0004         51.0004
 -12890898.32148 -10037145.02147  22585825.2894   22585828.5014   22585825.120
        51.0004         46.0004
 -12998185.06448 -10119188.37647  22465630.8304   22465633.4474   22465630.995
        50.0004         46.0004
 -18640836.69049 -14464196.20048  21288674.2614   21288676.0074   21288674.653
        54.0004         49.0004
 17  2  4  0 13  0.0000000  0  6G06G19G24G12G17G02
 -21442761.46549 -16692593.75648  20592131.8274   20592137.9434   20592131.152
        57.0004         52.0004
 -16972972.18549 -13168436.02648  21643091.0424   21643092.9454   21643091.619
        55.0004         50.0004
 -19950140.12549 -15502825.16548  21100501.6964   21100507.1984   21100501.332
        55.0004         51.0004
 -12965205.72148 -10095046.88247  22571685.5734   22571688.9374   22571685.490
        51.0004         46.0004
 -12913494.36948 -10053195.66847  22481747.1394   22481749.7854   22481746.509
        50.0004         46.0004
 -18733605.44149 -14536483.51248  21271021.2174   21271022.4304   21271021.412
        54.0004         49.0004
 17  2  4  0 13 30.0000000  0  6G06G19G24G12G17G02
 -21451559.71849 -16699449.53248  20590457.4914   20590463.5404   20590456.999
        57.0004         53.0004
 -16920549.12249 -13127586.90548  21653066.4634   21653069.0744   21653067.193
        55.0004         50.0004
 -19969890.73349 -15518215.25848  21096743.1534   21096748.8184   21096742.647
        55.0004         51.0004
 -13039464.82448 -10152911.09947  22557553.9764   22557556.9014   22557553.772
        51.0004         46.0004
 -12828705.82148  -9987126.70347  22497880.7644   22497885.5264   22497881.514
        50.0004         46.0004
 -18825976.64849 -14608461.05648  21253443.3644   21253444.7894   21253443.675
        54.0004         49.0004
 17  2  4  0 14  0.0000000  0  6G06G19G24G12G17G02
 -21459757.63349 -16705837.51148  20588897.6404   20588903.6654   20588896.916
        57.0004         53.0004
 -16867954.19949 -13086603.86248  21663074.9734   21663077.5174   21663075.978
        54.0004         50.0004
 -19989054.67749 -15533148.20748  21093096.3254   21093101.8474   21093096.151
        55.0004         51.0004
 -13113674.58948 -10210736.87647  22543432.5094   22543435.3104   22543432.256
        51.0004         46.0004
 -12743820.84448  -9920982.59747  22514034.1894   22514038.3044   22514033.984
        50.0004         46.0004
 -18917947.37549 -14680126.53548  21235941.8884   21235943.5244   21235942.449
        54.0004         49.0004
 17  2  4  0 14 30.0000000  0  6G06G19G24G12G17G02
 -21467355.14449 -16711757.64648  20587451.7464   20587457.8594   20587451.098
        57.0004         53.0004
 -16815188.49049 -13045487.74448  21673116.0094   21673117.8824   21673116.805
        54.0004         50.0004
 -20007630.67149 -15547623.01448  21089561.4024   21089567.1104   21089561.244
        55.0004         51.0004
 -13187833.91648 -10268523.35147  22529319.8614   22529323.6374   22529320.345
        51.0004         47.0004
 -12658840.99548  -9854764.57147  22530205.8634   22530209.3394   22530205.126
        50.0004         46.0004
 -19009515.03049 -14751477.92748  21218516.9504   21218518.6264   21218517.547
        54.0004         49.0004
 17  2  4  0 15  0.0000000  0  6G06G19G24G12G17G02
 -21474352.18549 -16717209.88148  20586120.4904   20586126.4314   20586119.749
        57.0004         53.0004
 -16762253.65549 -13004239.83648  21683189.1594   21683191.5374   21683190.121
        54.0004         50.0004
 -20025618.17649 -15561639.25948  21086138.5204   21086144.1234   21086138.303
        55.0004         51.0004
 -13261941.68948 -10326269.65247  22515218.4034   22515221.7234   22515218.059
        51.0004         47.0004
 -12573767.97748  -9788473.94347  22546394.0914   22546397.9564   22546394.080
        50.0004         46.0004
 -19100676.86949 -14822513.10048  21201169.5494   21201170.9084   21201170.200
        54.0004         49.0004
 17  2  4  0 15 30.0000000  0  6G06G19G24G12G17G02
 -21480748.77449 -16722194.23148  20584903.2904   20584909.0344   20584902.501
        57.0004         53.0004
 -16709151.05349 -12962861.20148  21693294.3044   21693296.3294   21693295.285
        54.0004         50.0004
 -20043016.27749 -15575196.23148  21082827.9274   21082833.3054   21082827.461
        55.0004         51.0004
 -13335996.92448 -10383975.01647  22501125.8544   22501128.7914   22501125.819
        51.0004         47.0004
 -12488603.13048  -9722111.76147  22562600.5274   22562604.3704   22562601.164
        50.0004         46.0004
 -19191430.22249 -14893229.98148  21183899.6844   21183901.4154   21183900.279
        54.0004         49.0004
 17  2  4  0 16  0.0000000  0  6G06G19G24G12G17G02
 -21486544.92249 -16726710.70448  20583800.1924   20583806.1474   20583799.495
        57.0004         53.0004
 -16655882.02149 -12921352.87648  21703431.0024   21703433.3124   21703431.671
        54.0004         50.0004
 -20059824.46349 -15588293.52548  21079629.4114   21079634.9644   21079629.029
        55.0004         51.0004
 -13409998.06548 -10441638.22847  22487044.1324   22487046.6504   22487043.618
        51.0004         47.0004
 -12403348.24248  -9655679.41747  22578824.7724   22578828.0764   22578824.754
        50.0004         46.0004
 -19281772.24149 -14963626.33848  21166708.1554   21166709.7024   21166708.544
        54.0004         49.0004
 17  2  4  0 16 30.0000000  0  6G06G19G24G12G17G02
 -21491740.59149 -16730759.27348  20582811.5214   20582817.3914   20582810.767
        57.0004         53.0004
 -16602448.29849 -12879716.22648  21713598.9724   21713601.3804   21713599.679
        54.0004         50.0004
 -20076042.30449 -15600930.80948  21076543.1974   21076548.6104   21076543.107
        55.0004         51.0004
 -13483943.82948 -10499258.28947  22472972.4724   22472975.2754   22472972.318
        51.0004         47.0004
 -12318004.64248  -9589177.94547  22595064.1754   22595068.1974   22595064.088
        50.0004         46.0004
 -19371700.29649 -15033700.12948  21149595.4734   21149596.8304   21149595.847
        54.0004         49.0004
 17  2  4  0 17  0.0000000  0  6G06G19G24G12G17G02
 -21496335.93849 -16734340.05848  20581937.0924   20581942.9044   20581936.367
        57.0004         52.0004
 -16548851.06149 -12837952.16248  21723798.5124   21723800.5654   21723799.031
        54.0004         50.0004
 -20091668.56749 -15613107.12348  21073569.9364   21073575.2804   21073569.151
        55.0004         51.0004
 -13557833.68948 -10556834.79047  22458911.9144   22458914.1164   22458911.803
        51.0004         47.0004
 -12232573.93048  -9522608.60747  22611321.5614   22611325.4824   22611320.929
        50.0004         45.0004
 -19461211.60849 -15103449.18648  21132562.0964   21132563.5744   21132562.302
        54.0004         49.0004
 17  2  4  0 17 30.0000000  0  6G06G19G24G12G17G02
 -21500330.87649 -16737452.99548  20581176.6444   20581182.7524   20581176.264
        57.0004         52.0004
 -16495091.55749 -12796061.65348  21734028.2314   21734030.7434   21734029.279
        54.0004         50.0004
 -20106702.52449 -15624821.90348  21070708.7564   21070714.5734   21070708.431
        55.0004         51.0004
 -13631666.08948 -10614366.52247  22444861.8874   22444864.8884   22444861.938
        52.0004         47.0004
 -12147057.46348  -9455972.42647  22627595.0264   22627598.7654   22627594.714
        50.0004         46.0004
 -19550303.42449 -15172871.35848  21115608.0084   21115610.0134   21115608.895
        54.0004         49.0004
 17  2  4  0 18  0.0000000  0  6G06G19G24G12G17G02
 -21503725.73149 -16740098.33348  20580530.7694   20580536.6944   20580529.906
        57.0004         53.0004
 -16441171.30049 -12754045.88148  21744289.2264   21744291.4374   21744289.892
        54.0004         49.0004
 -20121143.58549 -15636074.68948  21067960.9804   21067966.2984   21067960.556
        55.0004         51.0004
 -13705439.90048 -10671852.60247  22430823.7374   22430825.9284   22430822.926
        52.0004         47.0004
 -12061456.98648  -9389270.79847  22643883.6764   22643887.4044   22643883.836
        50.0004         45.0004
 -19638973.29349 -15241964.74548  21098734.7804   21098736.8834   21098735.430
        54.0004         49.0004
 17  2  4  0 18 30.0000000  0  6G06G19G24G12G17G02
 -21506520.38549 -16742275.98248  20579998.9454   20580004.7604   20579998.446
        57.0004         52.0004
 -16387091.78849 -12711906.01348  21754579.9004   21754582.5564   21754580.708
        54.0004         49.0004
 -20134991.01049 -15646864.89748  21065325.7264   21065331.4364   21065325.335
        55.0004         51.0004
 -13779153.62848 -10729291.85747  22416795.5604   22416798.9094   22416795.439
        52.0004         47.0004
 -11975773.78248  -9322504.70447  22660188.9844   22660192.8464   22660188.736
        50.0004         46.0004
 -19727218.29549 -15310727.06648  21081942.7014   21081944.3974   21081943.245
        54.0004         49.0004
 17  2  4  0 19  0.0000000  0  6G06G19G24G12G17G02
 -21508715.20149 -16743986.22848  20579581.3714   20579587.2334   20579580.571
        57.0004         52.0004
 -16332854.20849 -12669642.97948  21764901.0224   21764903.4914   21764901.952
        54.0004         49.0004
 -20148244.58849 -15657192.37048  21062803.7994   21062809.2124   21062803.456
        55.0004         51.0004
 -13852806.38548 -10786683.60847  22402780.6054   22402783.2394   22402780.072
        52.0004         47.0004
 -11890009.61248  -9255675.52147  22676508.9574   22676513.9014   22676509.052
        50.0004         45.0004
 -19815035.68849 -15379156.18748  21065231.3244   21065232.8104   21065232.029
        54.0004         49.0004
 17  2  4  0 19 30.0000000  0  6G06G19G24G12G17G02
 -21510310.28149 -16745229.14548  20579277.6374   20579283.7194   20579277.127
        57.0004         53.0004
 -16278459.86249 -12627257.79148  21775252.0524   21775254.7494   21775253.214
        54.0004         49.0004
 -20160903.33549 -15667056.34048  21060394.9824   21060400.4004   21060394.448
        55.0004         51.0004
 -13926396.82148 -10844026.79947  22388776.6604   22388779.1034   22388776.215
        52.0004         47.0004
 -11804165.62148  -9188784.13647  22692845.3074   22692848.8384   22692845.504
        50.0004         45.0004
 -19902423.05249 -15447250.22248  21048601.9624   21048603.7574   21048602.694
        54.0004         49.0004
 17  2  4  0 20  0.0000000  0  6G06G19G24G12G17G02
 -21511305.83349 -16746004.89648  20579088.2484   20579094.1194   20579087.751
        57.0004         53.0004
 -16223910.44549 -12584751.76648  21785632.6064   21785634.7844   21785633.682
        54.0004         49.0004
 -20172966.88049 -15676456.51148  21058099.4854   21058104.6264   21058098.848
        55.0004         51.0004
 -13999923.67948 -10901320.44347  22374785.6294   22374787.0554   22374784.951
        52.0004         47.0004
 -11718243.38648  -9121831.78847  22709196.0144   22709199.4734   22709195.342
        50.0004         45.0004
 -19989377.80249 -15515007.14948  21032055.2204   21032056.6914   21032055.909
        54.0004         50.0004
 17  2  4  0 20 30.0000000  0  6G06G19G24G12G17G02
 -21511702.13449 -16746313.70248  20579012.9844   20579018.8844   20579012.381
        57.0004         53.0004
 -16169207.17349 -12542125.85448  21796042.0774   21796044.6514   21796043.052
        54.0004         49.0004
 -20184434.76649 -15685392.53548  21055916.9394   21055922.5664   21055916.340
        55.0004         51.0004
 -14073385.89948 -10958563.72347  22360805.5184   22360808.2724   22360805.252
        52.0004         47.0004
 -11632244.20648  -9054819.48047  22725560.8864   22725564.6644   22725561.019
        50.0004         45.0004
 -20075896.96349 -15582424.65748  21015591.0204   21015592.8444   21015591.513
        54.0004         50.0004
 17  2  4  0 21  0.0000000  0  6G06G19G24G12G17G02
 -21511499.43549 -16746155.75048  20579051.3064   20579057.4054   20579050.892
        57.0004         53.0004
 -16114351.41749 -12499381.12848  21806481.0164   21806483.3514   21806481.685
        54.0004         49.0004
 -20195306.00949 -15693863.64348  21053848.1794   21053853.4564   21053847.511
        55.0004         51.0004
 -14146782.35148 -11015755.75047  22346838.7634   22346841.4734   22346838.867
        52.0004         47.0004
 -11546169.92948  -8987748.65547  22741939.6244   22741943.9524   22741940.557
        50.0004         45.0004
 -20161978.01349 -15649500.78448  20999210.7204   20999211.9054   20999211.030
        54.0004         50.0004
 17  2  4  0 21 30.0000000  0  6G06G19G24G12G17G02
 -21510697.99549 -16745531.25148  20579203.8074   20579209.8794   20579203.202
        57.0004         53.0004
 -16059344.67049 -12456518.74348  21816948.3814   21816951.0484   21816949.029
        54.0004         49.0004
 -20205580.55849 -15701869.79548  21051892.9554   21051898.6184   21051892.778
        55.0004         51.0004
 -14220111.29048 -11072895.17347  22332884.4894   22332887.4744   22332884.099
        52.0004         47.0004
 -11460021.67748  -8920620.20247  22758333.6724   22758337.2904   22758333.584
        50.0004         45.0004
 -20247618.59149 -15716233.68748  20982913.7474   20982915.1314   20982914.097
        54.0004         50.0004
 17  2  4  0 22  0.0000000  0  6G06G19G24G12G17G02
 -21509298.17849 -16744440.48248  20579470.6004   20579476.4494   20579469.797
        57.0004         53.0004
 -16004187.72649 -12413539.32248  21827444.1984   21827446.7874   21827445.342
        54.0004         49.0004
 -20215258.21249 -15709410.83848  21050051.5064   21050056.6494   21050050.874
        55.0004         51.0004
 -14293371.63648 -11129981.14447  22318943.7954   22318945.9894   22318943.219
        52.0004         47.0004
 -11373800.94948  -8853435.26147  22774740.2804   22774744.8594   22774740.855
        50.0004         45.0004
 -20332815.97349 -15782621.24148  20966701.1534   20966702.4564   20966701.630
        54.0004         50.0004
 17  2  4  0 22 30.0000000  0  6G06G19G24G12G17G02
 -21507300.26349 -16742883.66448  20579850.4204   20579856.3054   20579849.957
        57.0004         53.0004
 -15948882.00449 -12370443.97448  21837968.7004   21837971.3724   21837969.690
        54.0004         49.0004
 -20224337.66049 -15716485.74448  21048323.6434   21048329.4234   21048323.312
        55.0004         51.0004
 -14366561.37348 -11187012.09947  22305015.7874   22305018.7404   22305015.790
        52.0004         47.0004
 -11287508.79648  -8786194.66247  22791161.7974   22791166.1214   22791161.652
        50.0004         45.0004
 -20417567.50049 -15848661.37348  20950573.7664   20950575.0004   20950573.982
        54.0004         50.0004
 17  2  4  0 23  0.0000000  0  6G06G19G24G12G17G02
 -21504704.66349 -16740861.11848  20580344.4534   20580350.3854   20580343.718
        57.0004         53.0004
 -15893428.89149 -12327233.77648  21848521.4324   21848523.6404   21848522.117
        54.0004         49.0004
 -20232819.32049 -15723094.84648  21046709.8864   21046715.0734   21046709.371
        55.0004         51.0004
 -14439680.58348 -11243988.09447  22291101.7984   22291104.3554   22291101.460
        52.0004         47.0004
 -11201147.26648  -8718900.00547  22807596.2464   22807599.8014   22807595.486
        49.0004         45.0004
 -20501870.64349 -15914352.11848  20934530.8194   20934532.3894   20934531.610
        54.0004         50.0004
 17  2  4  0 23 30.0000000  0  6G06G19G24G12G17G02
 -21501511.64149 -16738373.04848  20580952.0404   20580957.9894   20580951.558
        57.0004         53.0004
 -15837829.59749 -12283909.67048  21859101.4184   21859104.0764   21859102.245
        54.0004         50.0004
 -20240702.25449 -15729237.40348  21045209.6624   21045215.3074   21045208.854
        55.0004         51.0004
 -14512727.09748 -11300907.43847  22277201.3184   22277204.1474   22277201.379
        52.0004         47.0004
 -11114717.00448  -8651551.79647  22824042.9324   22824046.9374   22824043.024
        50.0004         45.0004
 -20585722.75449 -15979691.41448  20918574.3284   20918575.7954   20918574.813
        54.0004         50.0004
 17  2  4  0 24  0.0000000  0  6G06G19G24G12G17G02
 -21497721.96349 -16735420.05548  20581673.3874   20581679.2194   20581672.589
        57.0004         53.0004
 -15782086.07449 -12240473.17948  21869709.0484   21869711.6714   21869709.899
        54.0004         49.0004
 -20247986.63549 -15734913.56148  21043823.7364   21043828.9574   21043823.098
        55.0004         51.0004
 -14585700.02448 -11357769.44847  22263315.1294   22263317.7044   22263315.031
        52.0004         47.0004
 -11028220.08248  -8584151.64047  22840503.0104   22840507.4154   22840502.817
        49.0004         45.0004
 -20669121.53149 -16044677.46048  20902704.1114   20902705.8514   20902704.545
        54.0004         50.0004
 17  2  4  0 24 30.0000000  0  6G06G19G24G12G17G02
 -21493335.68349 -16732002.17348  20582507.9624   20582514.0274   20582507.216
        57.0004         53.0004
 -15726199.44649 -12196925.17448  21880344.2824   21880346.9074   21880344.972
        54.0004         49.0004
 -20254671.87649 -15740122.85148  21042551.6004   21042557.0164   21042551.039
        55.0004         51.0004
 -14658597.88748 -11414572.96247  22249443.0924   22249445.9754   22249442.817
        52.0004         47.0004
 -10941657.27648  -8516700.15147  22856976.1564   22856979.3724   22856975.735
        49.0004         45.0004
 -20752064.24049 -16109308.12648  20886920.5534   20886922.1294   20886921.144
        54.0004         50.0004
 17  2  4  0 25  0.0000000  0  6G06G19G24G12G17G02
 -21488353.43849 -16728119.90648  20583455.9204   20583461.9184   20583455.408
        57.0004         53.0004
 -15670170.89449 -12153266.58148  21891005.8564   21891008.1464   21891006.836
        54.0004         50.0004
 -20260757.74449 -15744865.09548  21041393.0994   21041398.7684   21041392.669
        55.0004         51.0004
 -14731419.32948 -11471316.92347  22235585.6304   22235588.4774   22235585.509
        52.0004         47.0004
 -10855030.47548  -8449198.78947  22873459.4974   22873464.5084   22873459.718
        49.0004         45.0004
 -20834548.46649 -16173581.53248  20871224.3144   20871226.0864   20871224.977
        54.0004         50.0004
 17  2  4  0 25 30.0000000  0  6G06G19G24G12G17G02
 -21482775.69049 -16723773.61048  20584517.4814   20584523.3364   20584516.865
        57.0004         53.0004
 -15614001.35149 -12109498.13248  21901694.7624   21901697.1814   21901695.053
        54.0004         49.0004
 -20266243.81449 -15749139.97048  21040349.5134   21040354.9444   21040348.788
        55.0004         51.0004
 -14804162.93648 -11528000.24747  22221742.9114   22221745.7484   22221742.321
        52.0004         47.0004
 -10768340.97848  -8381648.58347  22889956.8774   22889960.1024   22889956.291
        49.0004         45.0004
 -20916571.68649 -16237495.70948  20855615.9224   20855617.6184   20855616.464
        54.0004         50.0004
 17  2  4  0 26  0.0000000  0  6G06G19G24G12G17G02
 -21476602.99149 -16718963.71548  20585692.1034   20585698.0374   20585691.426
        57.0004         53.0004
 -15557692.54249 -12065621.16048  21912410.1904   21912412.4314   21912410.708
        54.0004         49.0004
 -20271129.64849 -15752947.12748  21039419.7994   21039425.1344   21039419.274
        55.0004         51.0004
 -14876827.35348 -11584621.85647  22207915.0934   22207918.4694   22207914.512
        52.0004         47.0004
 -10681589.81348  -8314050.30647  22906464.9234   22906468.5954   22906464.719
        49.0004         45.0004
 -20998131.19949 -16301048.55848  20840095.6814   20840097.0614   20840096.018
        55.0004         50.0004
 17  2  4  0 26 30.0000000  0  6G06G19G24G12G17G02
 -21469835.79049 -16713690.57148  20586979.6694   20586985.6014   20586978.957
        57.0004         53.0004
 -15501245.48649 -12021636.45948  21923151.2254   21923153.8774   21923152.332
        54.0004         49.0004
 -20275415.02549 -15756286.39048  21038603.9834   21038609.6994   21038603.651
        55.0004         51.0004
 -14949411.30248 -11641180.76347  22194102.9994   22194106.0654   22194103.126
        52.0004         47.0004
 -10594778.21948  -8246404.95047  22922984.9914   22922988.2284   22922984.304
        49.0004         45.0004
 -21079224.66449 -16364238.25048  20824663.9054   20824665.5124   20824664.518
        55.0004         50.0004
 17  2  4  0 27  0.0000000  0  6G06G19G24G12G17G02
 -21462474.77449 -16707954.71748  20588380.5974   20588386.4774   20588380.072
        57.0004         53.0004
 -15444661.64249 -11977545.17848  21933919.0084   21933921.5204   21933919.663
        54.0004         49.0004
 -20279100.23249 -15759157.99448  21037902.9934   21037908.4284   21037902.204
        55.0004         51.0004
 -15021913.60748 -11697676.05947  22180306.7954   22180309.1044   22180306.403
        52.0004         47.0004
 -10507907.94548  -8178713.88347  22939515.4804   22939519.4154   22939514.833
        49.0004         45.0004
 -21159849.78349 -16427063.00048  20809321.4534   20809323.3484   20809322.121
        55.0004         50.0004
 17  2  4  0 27 30.0000000  0  6G06G19G24G12G17G02
 -21454520.48149 -16701756.56648  20589894.0784   20589900.1574   20589893.337
        57.0004         53.0004
 -15387942.24749 -11933348.26748  21944712.2924   21944714.6734   21944713.172
        54.0004         49.0004
 -20282184.72149 -15761561.50648  21037316.1214   21037321.4124   21037315.527
        55.0004         51.0004
 -15094332.57248 -11754106.40747  22166525.7364   22166528.7784   22166525.676
        52.0004         47.0004
 -10420979.97748  -8110977.84147  22956056.7774   22956060.7964   22956057.425
        49.0004         44.0004
 -21240003.98849 -16489520.80748  20794068.8564   20794069.9834   20794069.319
        55.0004         50.0004
 17  2  4  0 28  0.0000000  0  6G06G19G24G12G17G02
 -21445973.46949 -16695096.56148  20591520.6584   20591526.5884   20591520.153
        57.0004         53.0004
 -15331088.20349 -11889046.43548  21955531.3114   21955533.4534   21955532.275
        54.0004         49.0004
 -20284668.21349 -15763496.70348  21036843.4054   21036848.7264   21036842.670
        55.0004         51.0004
 -15166666.99248 -11810470.88548  22152760.8694   22152763.0084   22152760.707
        52.0004         48.0004
 -10333995.69348  -8043197.93847  22972609.6024   22972613.6684   22972609.577
        49.0004         45.0004
 -21319684.75049 -16551609.69848  20778906.1844   20778907.6834   20778906.538
        55.0004         50.0004
 17  2  4  0 28 30.0000000  0  6G06G19G24G12G17G02
 -21436834.47149 -16687975.26548  20593259.8004   20593265.7424   20593259.097
        57.0004         53.0004
 -15274101.00649 -11844640.84848  21966375.7444   21966378.0464   21966376.366
        54.0004         49.0004
 -20286550.79249 -15764963.66148  21036485.2084   21036490.5464   21036484.587
        55.0004         51.0004
 -15238915.28648 -11866768.25048  22139012.5454   22139015.3284   22139011.696
        52.0004         48.0004
 -10246956.32048  -7975375.07547  22989172.7634   22989176.3944   22989172.681
        49.0004         44.0004
 -21398889.65249 -16613327.79048  20763834.2094   20763835.2914   20763834.476
        55.0004         50.0004
 17  2  4  0 29  0.0000000  0  6G06G19G24G12G17G02
 -21427104.17649 -16680393.22048  20595111.3174   20595117.2014   20595110.588
        57.0004         53.0004
 -15216982.09749 -11800132.62948  21977244.9254   21977247.5184   21977245.990
        54.0004         49.0004
 -20287832.53049 -15765962.42848  21036241.4084   21036246.7834   21036240.808
        55.0004         51.0004
 -15311076.21348 -11922997.53648  22125280.8004   22125283.2764   22125280.594
        52.0004         48.0004
 -10159863.40148  -7907510.50547  23005746.8204   23005750.0424   23005746.490
        49.0004         45.0004
 -21477616.52949 -16674673.38748  20748852.7964   20748854.1084   20748853.017
        55.0004         51.0004
 17  2  4  0 29 30.0000000  0  6G06G19G24G12G17G02
 -21416783.15549 -16672350.86848  20597075.4914   20597081.1934   20597074.620
        57.0004         52.0004
 -15159732.37449 -11755522.48048  21988139.3014   21988141.5134   21988140.055
        54.0004         49.0004
 -20288513.07349 -15766492.73548  21036111.7684   21036117.1074   21036110.909
        55.0004         51.0004
 -15383148.12248 -11979157.45448  22111566.0704   22111568.6364   22111565.395
        52.0004         48.0004
 -10072718.05348  -7839605.08947  23022329.6424   23022332.9114   23022329.241
        49.0004         45.0004
 -21555862.77749 -16735644.47348  20733962.8224   20733964.1574   20733963.485
        55.0004         50.0004
 17  2  4  0 30  0.0000000  0  6G06G19G24G12G17G02
 -21405872.13949 -16663848.78248  20599151.4894   20599157.6844   20599151.153
        57.0004         52.0004
 -15102353.13048 -11710811.40448  21999058.3184   21999060.1564   21999058.743
        53.0004         49.0004
 -20288592.49149 -15766554.62948  21036096.3804   21036101.9134   21036096.147
        55.0004         51.0004
 -15455129.69548 -12035246.98848  22097868.3904   22097870.9584   22097868.028
        52.0004         48.0004
  -9985521.34148  -7771659.63147  23038923.2254   23038926.5414   23038922.596
        49.0004         44.0004
 -21633625.94449 -16796239.13148  20719165.1234   20719166.4144   20719165.500
        55.0004         50.0004
 17  2  4  0 30 30.0000000  0  6G06G19G24G12G17G02
 -21394371.99949 -16654887.63448  20601339.8684   20601346.1914   20601339.333
        57.0004         52.0004
 -15044845.58448 -11666000.35248  22010001.4544   22010003.9234   22010002.392
        53.0004         49.0004
 -20288070.63249 -15766147.99648  21036196.0384   21036201.4154   21036195.621
        55.0004         51.0004
 -15527019.97148 -12091265.37548  22084187.5564   22084190.3674   22084187.915
        52.0004         48.0004
  -9898274.63348  -7703675.23947  23055525.0394   23055529.2164   23055524.942
        49.0004         45.0004
 -21710903.76849 -16856455.59648  20704459.3064   20704460.8884   20704459.759
        55.0004         50.0004
 17  2  4  0 31  0.0000000  0  6G06G19G24G12G17G02
 -21382283.43349 -16645467.97648  20603640.4484   20603646.2984   20603639.929
        57.0004         52.0004
 -14987211.06348 -11621090.35548  22020968.8514   22020971.5424   22020969.881
        53.0004         49.0004
 -20286947.58949 -15765272.91348  21036409.6234   21036415.0524   21036409.050
        55.0004         51.0004
 -15598817.11848 -12147211.19648  22070525.2384   22070528.3414   22070524.975
        52.0004         48.0004
  -9810979.35448  -7635652.97747  23072136.8174   23072140.3534   23072136.357
        49.0004         44.0004
 -21787694.00749 -16916292.12648  20689846.5814   20689848.0874   20689847.246
        55.0004         51.0004
 17  2  4  0 31 30.0000000  0  6G06G19G24G12G17G02
 -21369607.17649 -16635590.37748  20606052.5994   20606058.6064   20606052.098
        57.0004         52.0004
 -14929450.90148 -11576082.46148  22031960.2684   22031962.5454   22031960.683
        53.0004         49.0004
 -20285223.62949 -15763929.58248  21036737.7804   21036743.4754   21036737.324
        55.0004         51.0004
 -15670519.47448 -12203083.15048  22056880.5854   22056884.0584   22056880.746
        52.0004         48.0004
  -9723636.59948  -7567593.72547  23088758.2594   23088761.7364   23088756.480
        49.0004         44.0004
 -21863994.25449 -16975746.85048  20675327.1934   20675328.7444   20675327.749
        55.0004         51.0004
 17  2  4  0 32  0.0000000  0  6G06G19G24G12G17G02
 -21356344.05449 -16625255.48048  20608576.5174   20608582.5604   20608575.794
        57.0004         52.0004
 -14871566.13448 -11530977.46648  22042975.2654   22042977.8834   22042976.169
        53.0004         49.0004
 -20282898.50249 -15762117.80648  21037180.3424   21037185.5934   21037179.937
        55.0004         51.0004
 -15742125.79348 -12258880.27248  22043254.6704   22043257.9154   22043254.149
        53.0004         48.0004
  -9636247.71148  -7499498.55547  23105387.1224   23105391.2754   23105386.164
        49.0004         44.0004
 -21939802.30449 -17034818.04748  20660901.7514   20660902.7614   20660901.813
        55.0004         50.0004
 17  2  4  0 32 30.0000000  0  6G06G19G24G12G17G02
 -21342494.96449 -16614463.98548  20611211.8874   20611217.8174   20611211.278
        57.0004         52.0004
 -14813557.89048 -11485776.25948  22054014.0344   22054016.4234   22054014.952
        53.0004         49.0004
 -20279972.50049 -15759837.81648  21037737.1684   21037742.5114   21037736.576
        55.0004         51.0004
 -15813634.60848 -12314601.41648  22029646.3874   22029649.9214   22029646.191
        53.0004         48.0004
  -9548813.87848  -7431368.32147  23122025.0294   23122028.7344   23122024.488
        49.0004         44.0004
 -22015115.82149 -17093503.89248  20646569.7584   20646571.2374   20646570.212
        55.0004         51.0004
 17  2  4  0 33  0.0000000  0  6G06G19G24G12G17G02
 -21328060.67449 -16603216.48848  20613958.7124   20613964.6374   20613958.183
        57.0004         52.0004
 -14755427.18248 -11440479.62748  22065076.0824   22065078.2064   22065076.817
        53.0004         48.0004
 -20276445.67049 -15757089.65048  21038408.0854   21038413.7464   21038407.800
        55.0004         51.0004
 -15885044.23248 -12370245.26448  22016057.8414   22016060.8864   22016057.572
        53.0004         48.0004
  -9461335.96748  -7363203.77047  23138670.6634   23138675.7964   23138671.572
        49.0004         44.0004
 -22089932.12849 -17151802.29048  20632332.5824   20632333.9494   20632332.980
        55.0004         50.0004
 17  2  4  0 33 30.0000000  0  6G06G19G24G12G17G02
 -21313042.15449 -16591513.74848  20616816.5964   20616822.6674   20616815.840
        57.0004         52.0004
 -14697175.58048 -11395088.78648  22076160.6584   22076163.2534   22076161.878
        53.0004         49.0004
 -20272317.97949 -15753873.27648  21039193.5554   21039199.2904   21039193.458
        55.0004         51.0004
 -15956353.37748 -12425810.82448  22002487.9394   22002491.2204   22002488.045
        53.0004         48.0004
  -9373815.07248  -7295005.71647  23155326.6234   23155330.1334   23155326.460
        48.0004         44.0004
 -22164249.42949 -17209711.85248  20618190.4224   20618191.9934   20618191.153
        55.0004         51.0004
 17  2  4  0 34  0.0000000  0  6G06G19G24G12G17G02
 -21297440.25549 -16579356.43348  20619785.6934   20619791.4714   20619785.156
        57.0004         52.0004
 -14638804.19548 -11349604.61448  22087268.8084   22087271.1904   22087269.322
        53.0004         48.0004
 -20267590.01949 -15750189.16948  21040093.5714   21040098.8344   21040092.884
        55.0004         51.0004
 -16027560.68048 -12481297.02448  21988937.9654   21988940.9554   21988937.543
        53.0004         48.0004
  -9286253.14548  -7226775.67747  23171988.4794   23171993.0834   23171988.143
        48.0004         44.0004
 -22238065.51849 -17267230.86548  20604143.6864   20604145.1334   20604144.231
        55.0004         51.0004
 17  2  4  0 34 30.0000000  0  6G06G19G24G12G17G02
 -21281256.04549 -16566745.36248  20622865.4134   20622871.3674   20622864.564
        57.0004         52.0004
 -14580313.89548 -11304027.77948  22098399.0444   22098401.4514   22098399.953
        53.0004         48.0004
 -20262261.94949 -15746037.43748  21041107.0574   21041112.8254   21041106.710
        55.0004         51.0004
 -16098664.37148 -12536702.48148  21975407.6254   21975410.5934   21975407.566
        53.0004         48.0004
  -9198650.88948  -7158514.24547  23188659.6104   23188663.8984   23188658.738
        48.0004         44.0004
 -22311378.16149 -17324357.58848  20590192.7514   20590194.5654   20590193.394
        55.0004         51.0004
 17  2  4  0 35  0.0000000  0  6G06G19G24G12G17G02
 -21264490.21749 -16553681.08448  20626055.8124   20626061.5874   20626055.103
        57.0004         52.0004
 -14521705.96348 -11258359.28248  22109551.7934   22109553.9854   22109552.567
        53.0004         48.0004
 -20256333.35049 -15741417.76148  21042235.2644   21042241.0444   21042234.976
        55.0004         51.0004
 -16169662.99648 -12592026.07248  21961896.8424   21961899.4594   21961896.235
        53.0004         48.0004
  -9111008.92648  -7090221.84847  23205336.3834   23205340.7214   23205337.191
        48.0004         44.0004
 -22384184.51249 -17381089.78448  20576338.3544   20576339.5924   20576338.720
        55.0004         51.0004
 17  2  4  0 35 30.0000000  0  6G06G19G24G12G17G02
 -21247143.92049 -16540164.49348  20629356.5844   20629362.5934   20629355.917
        57.0004         52.0004
 -14462981.56248 -11212600.03348  22120726.9504   22120728.8124   22120727.238
        53.0004         48.0004
 -20249804.72649 -15736330.53248  21043477.9604   21043483.4694   21043477.232
        55.0004         51.0004
 -16240555.05448 -12647266.62448  21948406.5214   21948409.4874   21948406.325
        53.0004         48.0004
  -9023329.43048  -7021900.21547  23222021.1644   23222025.5094   23222021.325
        48.0004         44.0004
 -22456483.05549 -17437426.30048  20562580.4114   20562581.6434   20562580.812
        55.0004         51.0004
 17  2  4  0 36  0.0000000  0  6G06G19G24G12G17G02
 -21229218.18449 -16526196.39148  20632767.8764   20632773.8404   20632767.396
        57.0004         52.0004
 -14404142.10448 -11166751.12848  22131923.4584   22131926.0654   22131924.267
        53.0004         48.0004
 -20242676.79849 -15730776.31348  21044834.1994   21044839.7404   21044833.677
        55.0004         51.0004
 -16311338.85848 -12702422.82348  21934936.7764   21934940.1454   21934936.330
        53.0004         48.0004
  -8935613.16348  -6953549.91947  23238713.1634   23238717.5504   23238713.809
        48.0004         44.0004
 -22528271.20749 -17493365.10948  20548919.3574   20548921.0904   20548919.856
        55.0004         51.0004
 17  2  4  0 36 30.0000000  0  6G06G19G24G12G17G02
 -21210713.92549 -16511777.49148  20636289.1894   20636294.9644   20636288.619
        57.0004         52.0004
 -14345188.31148 -11120813.12748  22143141.4924   22143144.4944   22143143.005
        53.0004         48.0004
 -20234949.82049 -15724755.30748  21046304.8654   21046310.0904   21046304.243
        55.0004         51.0004
 -16382013.00648 -12757493.57248  21921487.7804   21921490.9284   21921487.597
        53.0004         49.0004
  -8847861.28748  -6885171.88647  23255412.1144   23255415.3014   23255412.701
        48.0004         44.0004
 -22599546.72349 -17548904.46248  20535356.1584   20535357.6744   20535356.854
        55.0004         51.0004
 17  2  4  0 37  0.0000000  0  6G06G19G24G12G17G02
 -21191632.28249 -16496908.68248  20639920.1124   20639926.0654   20639919.561
        57.0004         52.0004
 -14286121.40748 -11074787.00148  22154382.3744   22154384.8004   22154383.234
        53.0004         48.0004
 -20226623.64949 -15718267.39848  21047889.0684   21047894.5944   21047888.546
        55.0004         51.0004
 -16452576.18948 -12812477.86148  21908059.8774   21908063.0234   21908060.016
        53.0004         48.0004
